{
  "timestamp": "2026-04-08T17:38:34.278508+00:00",
  "ttl_hours": 168,
  "data": [
    {
      "id": "cea11377-ed5b-4d33-accf-0582e47d24c7",
      "name": "区立富士中学校",
      "lat": 35.657016,
      "lon": 139.677442,
      "category": "public",
      "major_code": null,
      "sub_code": null,
      "year": "2021"
    },
    {
      "id": "e85b0c03-5661-4951-af73-bcba62cdebaa",
      "name": "初台保育園",
      "lat": 35.677458,
      "lon": 139.684662,
      "category": "public",
      "major_code": null,
      "sub_code": null,
      "year": "2021"
    },
    {
      "id": "cf9293cb-10b0-4711-9633-28e81dfd1f6f",
      "name": "世田谷区立郷土資料館",
      "lat": 35.641461,
      "lon": 139.647222,
      "category": "public",
      "major_code": null,
      "sub_code": null,
      "year": "2021"
    },
    {
      "id": "b79995cb-9feb-4282-868b-b895cdf71dc2",
      "name": "杉並区立永福図書館",
      "lat": 35.680747,
      "lon": 139.64076,
      "category": "public",
      "major_code": null,
      "sub_code": null,
      "year": "2021"
    },
    {
      "id": "ca67fab1-cba4-48fd-9650-cebeed8d830e",
      "name": "駒澤大学禅文化歴史博物館",
      "lat": 35.629582,
      "lon": 139.658591,
      "category": "public",
      "major_code": null,
      "sub_code": null,
      "year": "2021"
    },
    {
      "id": "fef86ac7-50ec-4861-b1a7-aef283f0bea9",
      "name": "世田谷区立上北沢図書館",
      "lat": 35.667574,
      "lon": 139.625616,
      "category": "public",
      "major_code": null,
      "sub_code": null,
      "year": "2021"
    },
    {
      "id": "8b517feb-ba8e-4c11-b94c-b1480ad983a9",
      "name": "杉並下高井戸郵便局",
      "lat": 35.669735,
      "lon": 139.625001,
      "category": "public",
      "major_code": null,
      "sub_code": null,
      "year": "2021"
    },
    {
      "id": "f3162dce-bd1d-4a0c-b5a2-e8a466372174",
      "name": "渋谷区立笹塚図書館",
      "lat": 35.672212,
      "lon": 139.667168,
      "category": "public",
      "major_code": null,
      "sub_code": null,
      "year": "2021"
    },
    {
      "id": "ff03346e-0f6d-41be-bc89-a2014c1db826",
      "name": "玉川警察署東玉川交番",
      "lat": 35.596967,
      "lon": 139.675583,
      "category": "public",
      "major_code": null,
      "sub_code": null,
      "year": "2021"
    },
    {
      "id": "6716c95d-61ca-4e1d-8721-89a05e2a06c3",
      "name": "区立山野小学校",
      "lat": 35.643293,
      "lon": 139.612864,
      "category": "public",
      "major_code": null,
      "sub_code": null,
      "year": "2021"
    },
    {
      "id": "9d40a363-ffb8-4d17-b1b9-b36115e31b38",
      "name": "区立緑ヶ丘小学校",
      "lat": 35.610231,
      "lon": 139.673486,
      "category": "public",
      "major_code": null,
      "sub_code": null,
      "year": "2021"
    },
    {
      "id": "a904a77a-7130-49c2-b033-07fb0354effd",
      "name": "私立田園調布学園高等部",
      "lat": 35.595745,
      "lon": 139.673639,
      "category": "public",
      "major_code": null,
      "sub_code": null,
      "year": "2021"
    },
    {
      "id": "b59f9a80-a075-4117-b2e6-bb2887f1157c",
      "name": "東京農業大学（国際食料情報学部）",
      "lat": 35.64085,
      "lon": 139.632196,
      "category": "public",
      "major_code": null,
      "sub_code": null,
      "year": "2021"
    },
    {
      "id": "c675dee2-9867-4b6b-84f5-4523d0c3727e",
      "name": "世田谷淡島郵便局",
      "lat": 35.654794,
      "lon": 139.673803,
      "category": "public",
      "major_code": null,
      "sub_code": null,
      "year": "2021"
    },
    {
      "id": "fbe957fd-1424-40c9-a34f-114d8cfb53e2",
      "name": "世田谷聖母幼稚園",
      "lat": 35.625296,
      "lon": 139.64489,
      "category": "public",
      "major_code": null,
      "sub_code": null,
      "year": "2021"
    },
    {
      "id": "fd278aaa-636a-4bd8-a4ea-bc5929856069",
      "name": "上馬地区会館",
      "lat": 35.634212,
      "lon": 139.662055,
      "category": "public",
      "major_code": null,
      "sub_code": null,
      "year": "2021"
    },
    {
      "id": "d275253d-36bf-41e6-bd14-1d2e1c7dc1af",
      "name": "宮内幼稚園",
      "lat": 35.590523,
      "lon": 139.642531,
      "category": "public",
      "major_code": null,
      "sub_code": null,
      "year": "2021"
    },
    {
      "id": "edc3e179-3d79-4820-8790-004c3a3eeadc",
      "name": "養護学校(知的障害)",
      "lat": 35.597869,
      "lon": 139.61841,
      "category": "public",
      "major_code": null,
      "sub_code": null,
      "year": "2021"
    },
    {
      "id": "cb34158f-6e77-4f8c-b174-a5b91207c1d5",
      "name": "世田谷区立岡本福祉作業ホーム玉堤分場",
      "lat": 35.598411,
      "lon": 139.648807,
      "category": "public",
      "major_code": null,
      "sub_code": null,
      "year": "2021"
    },
    {
      "id": "d61bf25a-7386-48ee-b071-70ae0efe4fea",
      "name": "東京国税局雪谷税務署",
      "lat": 35.593301,
      "lon": 139.680138,
      "category": "public",
      "major_code": null,
      "sub_code": null,
      "year": "2021"
    },
    {
      "id": "fed0635f-7042-428b-b72a-6e9a94f626e7",
      "name": "東京都福祉保健局世田谷児童相談所",
      "lat": 35.644043,
      "lon": 139.619725,
      "category": "public",
      "major_code": null,
      "sub_code": null,
      "year": "2021"
    },
    {
      "id": "f12f7443-5448-41a8-b8e2-ede135fccdb8",
      "name": "世田谷警察署桜丘交番",
      "lat": 35.645432,
      "lon": 139.622585,
      "category": "public",
      "major_code": null,
      "sub_code": null,
      "year": "2021"
    },
    {
      "id": "a940c82c-c04f-45e2-9ea5-a0c3e18fdf70",
      "name": "田園調布警察署大岡山駅前交番",
      "lat": 35.607188,
      "lon": 139.685554,
      "category": "public",
      "major_code": null,
      "sub_code": null,
      "year": "2021"
    },
    {
      "id": "e11bf16a-df21-492a-9417-d27fc1ff8a31",
      "name": "成城警察署祖師谷二丁目交番",
      "lat": 35.648154,
      "lon": 139.608475,
      "category": "public",
      "major_code": null,
      "sub_code": null,
      "year": "2021"
    },
    {
      "id": "b6e371a0-2c9a-4bb8-84f5-2ec5f50fe73d",
      "name": "田園調布警察署多摩川台駐在所",
      "lat": 35.595745,
      "lon": 139.66164,
      "category": "public",
      "major_code": null,
      "sub_code": null,
      "year": "2021"
    },
    {
      "id": "e0f8db88-a86e-4aa3-961e-7e8264b61c56",
      "name": "玉川警察署尾山台駐在所",
      "lat": 35.602188,
      "lon": 139.651584,
      "category": "public",
      "major_code": null,
      "sub_code": null,
      "year": "2021"
    },
    {
      "id": "7bf3c1b3-2334-47c1-8896-51abb2a94abc",
      "name": "成城警察署松葉通駐在所",
      "lat": 35.679289,
      "lon": 139.598781,
      "category": "public",
      "major_code": null,
      "sub_code": null,
      "year": "2021"
    },
    {
      "id": "623359a2-111e-4dcf-ac6b-dd7daa3f0fec",
      "name": "区立等々力小学校",
      "lat": 35.616464,
      "lon": 139.653695,
      "category": "public",
      "major_code": null,
      "sub_code": null,
      "year": "2021"
    },
    {
      "id": "87a0b409-d86e-4a6f-8c47-dcfc4b77b5f3",
      "name": "区立中里小学校",
      "lat": 35.639656,
      "lon": 139.673942,
      "category": "public",
      "major_code": null,
      "sub_code": null,
      "year": "2021"
    },
    {
      "id": "97f266ba-289a-4493-90d6-cb40d5a4440e",
      "name": "区立方南小学校",
      "lat": 35.679902,
      "lon": 139.658387,
      "category": "public",
      "major_code": null,
      "sub_code": null,
      "year": "2021"
    },
    {
      "id": "a7007551-32a1-456b-8c16-1afc537df6e2",
      "name": "区立明正小学校",
      "lat": 35.635433,
      "lon": 139.599227,
      "category": "public",
      "major_code": null,
      "sub_code": null,
      "year": "2021"
    },
    {
      "id": "c0f387aa-b7be-4f50-bf6e-f433521128b6",
      "name": "区立八幡山小学校",
      "lat": 35.66193,
      "lon": 139.621446,
      "category": "public",
      "major_code": null,
      "sub_code": null,
      "year": "2021"
    },
    {
      "id": "c630d831-4db7-4c01-b42f-f5ea7b7ed737",
      "name": "区立玉川小学校",
      "lat": 35.610881,
      "lon": 139.643557,
      "category": "public",
      "major_code": null,
      "sub_code": null,
      "year": "2021"
    },
    {
      "id": "cd8430e4-b283-45c9-983a-bc14af7c6dc0",
      "name": "区立東深沢小学校",
      "lat": 35.618075,
      "lon": 139.658305,
      "category": "public",
      "major_code": null,
      "sub_code": null,
      "year": "2021"
    },
    {
      "id": "e6f20fdb-1199-410b-a89d-65af525828e6",
      "name": "区立中丸小学校",
      "lat": 35.632435,
      "lon": 139.673248,
      "category": "public",
      "major_code": null,
      "sub_code": null,
      "year": "2021"
    },
    {
      "id": "e7ee6f51-57e0-401d-930c-e774d700b597",
      "name": "区立深沢小学校",
      "lat": 35.627213,
      "lon": 139.651584,
      "category": "public",
      "major_code": null,
      "sub_code": null,
      "year": "2021"
    },
    {
      "id": "67c004fc-2d8a-4449-816e-f1b024f09dc9",
      "name": "区立芦花小学校",
      "lat": 35.666041,
      "lon": 139.611669,
      "category": "public",
      "major_code": null,
      "sub_code": null,
      "year": "2021"
    },
    {
      "id": "770f7f95-e25b-4d81-8622-93dbbe718992",
      "name": "区立代田小学校",
      "lat": 35.658432,
      "lon": 139.658554,
      "category": "public",
      "major_code": null,
      "sub_code": null,
      "year": "2021"
    },
    {
      "id": "970ff3db-df89-42f7-94be-a1322378c9e6",
      "name": "区立松原小学校",
      "lat": 35.664209,
      "lon": 139.650638,
      "category": "public",
      "major_code": null,
      "sub_code": null,
      "year": "2021"
    },
    {
      "id": "b69f7c83-adb3-46ac-b9c9-6789ea2fb70e",
      "name": "区立船橋小学校",
      "lat": 35.653209,
      "lon": 139.617141,
      "category": "public",
      "major_code": null,
      "sub_code": null,
      "year": "2021"
    },
    {
      "id": "dae4a978-aee9-4bbe-82f7-17efb605254a",
      "name": "区立和泉小学校",
      "lat": 35.67543,
      "lon": 139.648999,
      "category": "public",
      "major_code": null,
      "sub_code": null,
      "year": "2021"
    },
    {
      "id": "ddaef434-26e4-4321-aad3-82df457dc012",
      "name": "区立千歳小学校",
      "lat": 35.651597,
      "lon": 139.59792,
      "category": "public",
      "major_code": null,
      "sub_code": null,
      "year": "2021"
    },
    {
      "id": "f1705e0f-4430-4ae8-9fab-2e2f00a70272",
      "name": "区立上北沢小学校",
      "lat": 35.669568,
      "lon": 139.621557,
      "category": "public",
      "major_code": null,
      "sub_code": null,
      "year": "2021"
    },
    {
      "id": "492cd54c-a819-4984-af8b-9f0dacbee00e",
      "name": "区立船橋中学校",
      "lat": 35.655348,
      "lon": 139.618724,
      "category": "public",
      "major_code": null,
      "sub_code": null,
      "year": "2021"
    },
    {
      "id": "722c6468-9c7f-4b2e-bdb1-a2a74b41263b",
      "name": "区立山崎中学校",
      "lat": 35.65071,
      "lon": 139.655055,
      "category": "public",
      "major_code": null,
      "sub_code": null,
      "year": "2021"
    },
    {
      "id": "ab706c70-3687-4391-a30c-14a02f4d1df2",
      "name": "区立上祖師谷中学校",
      "lat": 35.660207,
      "lon": 139.593226,
      "category": "public",
      "major_code": null,
      "sub_code": null,
      "year": "2021"
    },
    {
      "id": "fcf1adf8-950a-483d-ab51-e507e389231c",
      "name": "区立上原中学校",
      "lat": 35.667042,
      "lon": 139.678025,
      "category": "public",
      "major_code": null,
      "sub_code": null,
      "year": "2021"
    },
    {
      "id": "b0fc34fd-de3d-48e6-af53-b8fb60727532",
      "name": "区立砧南中学校",
      "lat": 35.621463,
      "lon": 139.613393,
      "category": "public",
      "major_code": null,
      "sub_code": null,
      "year": "2021"
    },
    {
      "id": "c81b5ea1-3fc3-4c40-8256-fa1102f31fd6",
      "name": "区立第一中学校",
      "lat": 35.68254,
      "lon": 139.662442,
      "category": "public",
      "major_code": null,
      "sub_code": null,
      "year": "2021"
    },
    {
      "id": "e3e3536b-b425-4bd3-acc9-5ba03c8c8ef1",
      "name": "区立駒留中学校",
      "lat": 35.637435,
      "lon": 139.678414,
      "category": "public",
      "major_code": null,
      "sub_code": null,
      "year": "2021"
    },
    {
      "id": "f36c0eb8-3691-4f25-a84b-81312f4010d4",
      "name": "区立若林中学校",
      "lat": 35.649599,
      "lon": 139.657388,
      "category": "public",
      "major_code": null,
      "sub_code": null,
      "year": "2021"
    },
    {
      "id": "3509bb28-e2e5-4d60-8c6e-1f7aee526e67",
      "name": "私立田園調布雙葉高等学校",
      "lat": 35.598994,
      "lon": 139.657001,
      "category": "public",
      "major_code": null,
      "sub_code": null,
      "year": "2021"
    },
    {
      "id": "517ac956-22af-43e1-99ab-684687a8c43c",
      "name": "私立成城学園高等学校",
      "lat": 35.645682,
      "lon": 139.600615,
      "category": "public",
      "major_code": null,
      "sub_code": null,
      "year": "2021"
    },
    {
      "id": "cb87a18a-e207-4c37-8731-97f2bfb6aceb",
      "name": "私立日本工業大学付属東京工業高等学校",
      "lat": 35.657377,
      "lon": 139.683969,
      "category": "public",
      "major_code": null,
      "sub_code": null,
      "year": "2021"
    },
    {
      "id": "ddabc7fe-906e-48a6-bee3-15b70b492289",
      "name": "私立専修大学附属高等学校",
      "lat": 35.677013,
      "lon": 139.655415,
      "category": "public",
      "major_code": null,
      "sub_code": null,
      "year": "2021"
    },
    {
      "id": "f35e0707-73c1-40dd-892a-0d1250ad9e67",
      "name": "私立世田谷学園高等学校",
      "lat": 35.648628,
      "lon": 139.675164,
      "category": "public",
      "major_code": null,
      "sub_code": null,
      "year": "2021"
    },
    {
      "id": "ac22f156-644b-47a4-8bc5-e7f673f1651a",
      "name": "都立総合工科高等学校",
      "lat": 35.651653,
      "lon": 139.595615,
      "category": "public",
      "major_code": null,
      "sub_code": null,
      "year": "2021"
    },
    {
      "id": "d8d393e8-3827-4277-a2e9-5dbec4b1792a",
      "name": "都立杉並総合高等学校",
      "lat": 35.676595,
      "lon": 139.622807,
      "category": "public",
      "major_code": null,
      "sub_code": null,
      "year": "2021"
    },
    {
      "id": "f17cc690-907f-4835-b3c4-6ca326b356a7",
      "name": "私立駒沢大学高等学校",
      "lat": 35.634462,
      "lon": 139.635501,
      "category": "public",
      "major_code": null,
      "sub_code": null,
      "year": "2021"
    },
    {
      "id": "875fba4e-2dd7-450b-ba5f-383cfb80a5d5",
      "name": "自由が丘産能短期大学",
      "lat": 35.613548,
      "lon": 139.661611,
      "category": "public",
      "major_code": null,
      "sub_code": null,
      "year": "2021"
    },
    {
      "id": "fde53f13-39ac-4853-8303-bccb7fd1c7db",
      "name": "私立桐朋女子高等学校",
      "lat": 35.659763,
      "lon": 139.584227,
      "category": "public",
      "major_code": null,
      "sub_code": null,
      "year": "2021"
    },
    {
      "id": "99a67501-a8e5-4f5a-8c37-8d6dfc4ea574",
      "name": "駒澤大学（医療健康科学部）",
      "lat": 35.629407,
      "lon": 139.658472,
      "category": "public",
      "major_code": null,
      "sub_code": null,
      "year": "2021"
    },
    {
      "id": "3574931f-b0a3-43e2-9eb8-62dc32b14d1e",
      "name": "昭和女子大学（人間社会学部）",
      "lat": 35.644073,
      "lon": 139.676053,
      "category": "public",
      "major_code": null,
      "sub_code": null,
      "year": "2021"
    },
    {
      "id": "9dff1063-c377-4fb1-a3c8-627be6e1aad5",
      "name": "国士舘大学（政経学部）",
      "lat": 35.648599,
      "lon": 139.653666,
      "category": "public",
      "major_code": null,
      "sub_code": null,
      "year": "2021"
    },
    {
      "id": "37b9024f-93e1-4800-951b-169f0341b2da",
      "name": "中野養護学校",
      "lat": 35.684179,
      "lon": 139.662831,
      "category": "public",
      "major_code": null,
      "sub_code": null,
      "year": "2021"
    },
    {
      "id": "b021a85c-2152-42fa-88fe-29d8e8fc65bf",
      "name": "田園調布養護学校",
      "lat": 35.595384,
      "lon": 139.65489,
      "category": "public",
      "major_code": null,
      "sub_code": null,
      "year": "2021"
    },
    {
      "id": "8d1dc5d2-9be3-41a9-ab77-9ce74504f601",
      "name": "芦花幼稚園",
      "lat": 35.66518,
      "lon": 139.613058,
      "category": "public",
      "major_code": null,
      "sub_code": null,
      "year": "2021"
    },
    {
      "id": "b7b0ee24-87ec-49fe-b6d3-00aa0cd4ad88",
      "name": "ゆかり文化幼稚園",
      "lat": 35.638405,
      "lon": 139.605337,
      "category": "public",
      "major_code": null,
      "sub_code": null,
      "year": "2021"
    },
    {
      "id": "9bb85a0a-e377-4d40-ad88-51d80d38a3a6",
      "name": "マダレナ・カノッサ幼稚園",
      "lat": 35.657264,
      "lon": 139.627696,
      "category": "public",
      "major_code": null,
      "sub_code": null,
      "year": "2021"
    },
    {
      "id": "bffb4da1-3f9d-4370-9cbb-fbdfe2b2467c",
      "name": "えいあんじ幼稚園",
      "lat": 35.620408,
      "lon": 139.617115,
      "category": "public",
      "major_code": null,
      "sub_code": null,
      "year": "2021"
    },
    {
      "id": "1aaaefa4-22ae-4aa7-8a58-3ab778ce9146",
      "name": "瀬田幼稚園",
      "lat": 35.620241,
      "lon": 139.626864,
      "category": "public",
      "major_code": null,
      "sub_code": null,
      "year": "2021"
    },
    {
      "id": "e9b30797-edda-4771-bfb6-4ffe7cdb577a",
      "name": "三宿さくら幼稚園",
      "lat": 35.651044,
      "lon": 139.674303,
      "category": "public",
      "major_code": null,
      "sub_code": null,
      "year": "2021"
    },
    {
      "id": "ffee9184-cd8c-402d-b357-96a19a0d92c0",
      "name": "大宮幼稚園",
      "lat": 35.68204,
      "lon": 139.640083,
      "category": "public",
      "major_code": null,
      "sub_code": null,
      "year": "2021"
    },
    {
      "id": "42b60de1-7d9d-4948-8810-eeb4170414ee",
      "name": "青葉学園幼稚園",
      "lat": 35.644155,
      "lon": 139.647889,
      "category": "public",
      "major_code": null,
      "sub_code": null,
      "year": "2021"
    },
    {
      "id": "593b8942-c017-48db-9947-397b64e244b7",
      "name": "聖ドミニコ学園幼稚園",
      "lat": 35.62388,
      "lon": 139.620976,
      "category": "public",
      "major_code": null,
      "sub_code": null,
      "year": "2021"
    },
    {
      "id": "9a238e28-3c82-4fa0-b15e-fd98d6753635",
      "name": "國學院大學附属幼稚園",
      "lat": 35.683844,
      "lon": 139.594336,
      "category": "public",
      "major_code": null,
      "sub_code": null,
      "year": "2021"
    },
    {
      "id": "7892f49d-9c9b-44ce-a486-e56e5a7587ed",
      "name": "吉川内科小児科病院",
      "lat": 35.665765,
      "lon": 139.642266,
      "category": "public",
      "major_code": null,
      "sub_code": null,
      "year": "2021"
    },
    {
      "id": "20fed76e-8fb6-4dc2-88b1-30f76f8412aa",
      "name": "小島病院",
      "lat": 35.630685,
      "lon": 139.650111,
      "category": "public",
      "major_code": null,
      "sub_code": null,
      "year": "2021"
    },
    {
      "id": "5151c2f5-e047-4939-81a2-1e9f6ac195a9",
      "name": "さくら会世田谷中央病院",
      "lat": 35.641267,
      "lon": 139.650555,
      "category": "public",
      "major_code": null,
      "sub_code": null,
      "year": "2021"
    },
    {
      "id": "7cc8750a-cf2b-4657-ac9e-725b5081ddc3",
      "name": "田園調布一郵便局",
      "lat": 35.591468,
      "lon": 139.672417,
      "category": "public",
      "major_code": null,
      "sub_code": null,
      "year": "2021"
    },
    {
      "id": "a2a54843-2352-4164-9720-fb687932ab60",
      "name": "学芸大学前郵便局",
      "lat": 35.633629,
      "lon": 139.678526,
      "category": "public",
      "major_code": null,
      "sub_code": null,
      "year": "2021"
    },
    {
      "id": "b62578e1-f974-45c6-adf7-e2e83b7b5d58",
      "name": "喜多見駅前郵便局",
      "lat": 35.637266,
      "lon": 139.588783,
      "category": "public",
      "major_code": null,
      "sub_code": null,
      "year": "2021"
    },
    {
      "id": "78b08dd2-2ec5-44fd-972a-b603f1fa9e8c",
      "name": "杉並西永福郵便局",
      "lat": 35.68004,
      "lon": 139.635556,
      "category": "public",
      "major_code": null,
      "sub_code": null,
      "year": "2021"
    },
    {
      "id": "a421b5b4-57e3-4619-948e-45239451a1ba",
      "name": "世田谷成城二郵便局",
      "lat": 35.637183,
      "lon": 139.599949,
      "category": "public",
      "major_code": null,
      "sub_code": null,
      "year": "2021"
    },
    {
      "id": "d624b967-0940-4296-9e48-77a0fa0e52d6",
      "name": "世田谷千歳台郵便局",
      "lat": 35.656014,
      "lon": 139.609586,
      "category": "public",
      "major_code": null,
      "sub_code": null,
      "year": "2021"
    },
    {
      "id": "e18d5798-8566-4888-a815-28f1a6a902f2",
      "name": "祖師谷大蔵駅前郵便局",
      "lat": 35.643182,
      "lon": 139.606809,
      "category": "public",
      "major_code": null,
      "sub_code": null,
      "year": "2021"
    },
    {
      "id": "5b2e4698-8e59-415e-83d2-f3792a5598a6",
      "name": "世田谷上馬一郵便局",
      "lat": 35.63824,
      "lon": 139.667721,
      "category": "public",
      "major_code": null,
      "sub_code": null,
      "year": "2021"
    },
    {
      "id": "72c91ca2-8128-4999-8605-5718ed9020c0",
      "name": "高井戸駅前郵便局",
      "lat": 35.68265,
      "lon": 139.615946,
      "category": "public",
      "major_code": null,
      "sub_code": null,
      "year": "2021"
    },
    {
      "id": "a92dbe64-e958-44fe-b2a7-d92885af2400",
      "name": "成城学園前郵便局",
      "lat": 35.640877,
      "lon": 139.599699,
      "category": "public",
      "major_code": null,
      "sub_code": null,
      "year": "2021"
    },
    {
      "id": "bb419b7c-26ec-47c0-a00c-567802d40591",
      "name": "世田谷大原郵便局",
      "lat": 35.670791,
      "lon": 139.659165,
      "category": "public",
      "major_code": null,
      "sub_code": null,
      "year": "2021"
    },
    {
      "id": "d7e85e02-34bd-426a-ae9c-f43a568ca85e",
      "name": "東玉川郵便局",
      "lat": 35.599106,
      "lon": 139.674833,
      "category": "public",
      "major_code": null,
      "sub_code": null,
      "year": "2021"
    },
    {
      "id": "e0695276-5aef-4b19-b112-ae2c7f5ccf7c",
      "name": "世田谷池尻郵便局",
      "lat": 35.648628,
      "lon": 139.677803,
      "category": "public",
      "major_code": null,
      "sub_code": null,
      "year": "2021"
    },
    {
      "id": "f3555b52-a12f-4dda-8259-a364143e74bc",
      "name": "渋谷上原郵便局",
      "lat": 35.669709,
      "lon": 139.682302,
      "category": "public",
      "major_code": null,
      "sub_code": null,
      "year": "2021"
    },
    {
      "id": "3c28217b-d2d1-4959-b42e-2e10339cae23",
      "name": "世田谷区中町在宅介護支援センター",
      "lat": 35.617936,
      "lon": 139.644946,
      "category": "public",
      "major_code": null,
      "sub_code": null,
      "year": "2021"
    },
    {
      "id": "4416f6f1-d8d1-483b-8a27-f67dbc082611",
      "name": "社会福祉法人老後を幸せにする会さつき荘",
      "lat": 35.609271,
      "lon": 139.658139,
      "category": "public",
      "major_code": null,
      "sub_code": null,
      "year": "2021"
    },
    {
      "id": "c653ee29-0b46-4e9f-a38d-20d538bb0f4e",
      "name": "特別養護老人ホーム　喜多見ホーム",
      "lat": 35.632517,
      "lon": 139.595949,
      "category": "public",
      "major_code": null,
      "sub_code": null,
      "year": "2021"
    },
    {
      "id": "56276a06-5d09-4b02-9bae-5082fdd946bf",
      "name": "社会福祉法人目黒区社会福祉事業団目黒区立特別養護老人ホーム東が丘",
      "lat": 35.629435,
      "lon": 139.67186,
      "category": "public",
      "major_code": null,
      "sub_code": null,
      "year": "2021"
    },
    {
      "id": "9a58f10c-6158-469b-b884-ad6d567a85ac",
      "name": "成城在宅介護支援センター",
      "lat": 35.641904,
      "lon": 139.600004,
      "category": "public",
      "major_code": null,
      "sub_code": null,
      "year": "2021"
    },
    {
      "id": "ac307ef7-2a04-48dc-81f5-16625fd3ffda",
      "name": "大田区在宅介護支援センター大田西",
      "lat": 35.594791,
      "lon": 139.681137,
      "category": "public",
      "major_code": null,
      "sub_code": null,
      "year": "2021"
    },
    {
      "id": "de3047e1-5575-44fc-b32f-dfe2f2bbf03e",
      "name": "給田在宅介護支援センター",
      "lat": 35.672122,
      "lon": 139.58581,
      "category": "public",
      "major_code": null,
      "sub_code": null,
      "year": "2021"
    },
    {
      "id": "baf3d01f-9081-4b96-ba16-7fb005d4c046",
      "name": "都立母子保健院",
      "lat": 35.644433,
      "lon": 139.642917,
      "category": "public",
      "major_code": null,
      "sub_code": null,
      "year": "2021"
    },
    {
      "id": "7766860c-c5dc-411e-b636-683d9c930968",
      "name": "世田谷瀬田郵便局",
      "lat": 35.622241,
      "lon": 139.629836,
      "category": "public",
      "major_code": null,
      "sub_code": null,
      "year": "2021"
    },
    {
      "id": "b6d65075-1cef-41ca-a484-014af2bd6593",
      "name": "サンシティ調布",
      "lat": 35.67065,
      "lon": 139.585421,
      "category": "public",
      "major_code": null,
      "sub_code": null,
      "year": "2021"
    },
    {
      "id": "b5723658-8673-4ec9-b712-1ef511219c91",
      "name": "社会福祉法人狛江福祉会　こまえ苑",
      "lat": 35.625768,
      "lon": 139.592756,
      "category": "public",
      "major_code": null,
      "sub_code": null,
      "year": "2021"
    },
    {
      "id": "9f982203-e8cb-43d3-81c7-aa8ee41ae069",
      "name": "二子玉川地区会館",
      "lat": 35.615659,
      "lon": 139.626781,
      "category": "public",
      "major_code": null,
      "sub_code": null,
      "year": "2021"
    },
    {
      "id": "90e98956-3ed4-403e-9f7c-c5f153a06f2b",
      "name": "高井戸西敬老会館",
      "lat": 35.681483,
      "lon": 139.606752,
      "category": "public",
      "major_code": null,
      "sub_code": null,
      "year": "2021"
    },
    {
      "id": "91dc3c16-6b8f-4d8f-8bc1-cbb313594414",
      "name": "高井戸東敬老会館",
      "lat": 35.683317,
      "lon": 139.625112,
      "category": "public",
      "major_code": null,
      "sub_code": null,
      "year": "2021"
    },
    {
      "id": "b7839daf-2eb8-43e0-8596-f8a5e8750967",
      "name": "上町児童館",
      "lat": 35.643044,
      "lon": 139.642806,
      "category": "public",
      "major_code": null,
      "sub_code": null,
      "year": "2021"
    },
    {
      "id": "591690ce-b20a-4713-bba2-a80ea74352a8",
      "name": "目黒区立八雲住区センター児童館",
      "lat": 35.618687,
      "lon": 139.672249,
      "category": "public",
      "major_code": null,
      "sub_code": null,
      "year": "2021"
    },
    {
      "id": "b214431e-c800-47df-9d3b-e50d551c07da",
      "name": "下代田児童遊園",
      "lat": 35.653849,
      "lon": 139.657499,
      "category": "public",
      "major_code": null,
      "sub_code": null,
      "year": "2021"
    },
    {
      "id": "f37ef441-87f1-48bb-8fb8-1c5f5429e88a",
      "name": "深沢児童館",
      "lat": 35.620297,
      "lon": 139.653611,
      "category": "public",
      "major_code": null,
      "sub_code": null,
      "year": "2021"
    },
    {
      "id": "d936c4be-01fa-4819-b0d7-25c74300016c",
      "name": "下高井戸児童館",
      "lat": 35.673179,
      "lon": 139.630417,
      "category": "public",
      "major_code": null,
      "sub_code": null,
      "year": "2021"
    },
    {
      "id": "d5a5a1d5-06df-437a-ab84-6de354764b82",
      "name": "碑文谷福祉工房",
      "lat": 35.621548,
      "lon": 139.681053,
      "category": "public",
      "major_code": null,
      "sub_code": null,
      "year": "2021"
    },
    {
      "id": "94e800af-3564-4420-998f-26ffed88d685",
      "name": "世田谷区立鳥山福祉作業所",
      "lat": 35.677234,
      "lon": 139.606724,
      "category": "public",
      "major_code": null,
      "sub_code": null,
      "year": "2021"
    },
    {
      "id": "81a31b85-b7b5-4ffd-9b07-35fb8f808814",
      "name": "南奥沢保育園",
      "lat": 35.599467,
      "lon": 139.680027,
      "category": "public",
      "major_code": null,
      "sub_code": null,
      "year": "2021"
    },
    {
      "id": "3b801f6d-9e13-4d1c-8597-714a4aadc4a7",
      "name": "上北沢地区会館",
      "lat": 35.66318,
      "lon": 139.622474,
      "category": "public",
      "major_code": null,
      "sub_code": null,
      "year": "2021"
    },
    {
      "id": "4ba2847b-3640-4f3a-a52f-591306609a43",
      "name": "代田地区会館",
      "lat": 35.66232,
      "lon": 139.656526,
      "category": "public",
      "major_code": null,
      "sub_code": null,
      "year": "2021"
    },
    {
      "id": "6321e916-ba80-4c12-bb79-a74c0ac68828",
      "name": "駒沢地区会館",
      "lat": 35.631407,
      "lon": 139.654167,
      "category": "public",
      "major_code": null,
      "sub_code": null,
      "year": "2021"
    },
    {
      "id": "8b96f1da-d699-4764-af10-bdac119ac364",
      "name": "弦巻区民センター",
      "lat": 35.636712,
      "lon": 139.652528,
      "category": "public",
      "major_code": null,
      "sub_code": null,
      "year": "2021"
    },
    {
      "id": "b221699f-2c38-4a53-8f45-a8b699e8ac87",
      "name": "新町地区会館",
      "lat": 35.630129,
      "lon": 139.648195,
      "category": "public",
      "major_code": null,
      "sub_code": null,
      "year": "2021"
    },
    {
      "id": "d823e0ac-e7ce-4e2d-8e1d-80a9e98716a7",
      "name": "本町敬老館",
      "lat": 35.682223,
      "lon": 139.679816,
      "category": "public",
      "major_code": null,
      "sub_code": null,
      "year": "2021"
    },
    {
      "id": "f9202783-c364-476c-a54d-fd57a35363d8",
      "name": "下馬地区会館",
      "lat": 35.638046,
      "lon": 139.679775,
      "category": "public",
      "major_code": null,
      "sub_code": null,
      "year": "2021"
    },
    {
      "id": "b23e5e19-45a0-490d-9414-12211f881543",
      "name": "桜上水南地区会館",
      "lat": 35.659431,
      "lon": 139.63339,
      "category": "public",
      "major_code": null,
      "sub_code": null,
      "year": "2021"
    },
    {
      "id": "44e18619-b3a6-4caf-b2f9-6b5c2d6816b0",
      "name": "氷川荘",
      "lat": 35.655349,
      "lon": 139.681969,
      "category": "public",
      "major_code": null,
      "sub_code": null,
      "year": "2021"
    },
    {
      "id": "b90d748a-5f4f-41f6-9537-3d774b1475bd",
      "name": "渋谷区児童福祉センター",
      "lat": 35.682083,
      "lon": 139.679727,
      "category": "public",
      "major_code": null,
      "sub_code": null,
      "year": "2021"
    },
    {
      "id": "c19c8e49-9df3-4e49-ac4f-8937defbfb4d",
      "name": "パルメゾン上北沢",
      "lat": 35.670179,
      "lon": 139.619946,
      "category": "public",
      "major_code": null,
      "sub_code": null,
      "year": "2021"
    },
    {
      "id": "8a1a8288-f4fa-4898-986a-c1bc298a7cd2",
      "name": "福音寮",
      "lat": 35.666458,
      "lon": 139.626723,
      "category": "public",
      "major_code": null,
      "sub_code": null,
      "year": "2021"
    },
    {
      "id": "672e0abc-037d-440d-b65d-158bb6084158",
      "name": "スタルト方南",
      "lat": 35.674597,
      "lon": 139.660859,
      "category": "public",
      "major_code": null,
      "sub_code": null,
      "year": "2021"
    },
    {
      "id": "bbdc1bc5-baec-48d0-8cf2-7f67bc22dbf0",
      "name": "おおらか学園",
      "lat": 35.648043,
      "lon": 139.620974,
      "category": "public",
      "major_code": null,
      "sub_code": null,
      "year": "2021"
    },
    {
      "id": "cb8a9e6c-c8d2-4af5-bb62-73a4642438dc",
      "name": "駒沢生活実習所",
      "lat": 35.634518,
      "lon": 139.655888,
      "category": "public",
      "major_code": null,
      "sub_code": null,
      "year": "2021"
    },
    {
      "id": "bea8e5a1-cd45-468a-b902-0db23dda0c64",
      "name": "砧工房",
      "lat": 35.643516,
      "lon": 139.614475,
      "category": "public",
      "major_code": null,
      "sub_code": null,
      "year": "2021"
    },
    {
      "id": "fd0979cf-be90-43ac-82f7-62f7e99b31bd",
      "name": "下馬福祉工房",
      "lat": 35.640684,
      "lon": 139.675415,
      "category": "public",
      "major_code": null,
      "sub_code": null,
      "year": "2021"
    },
    {
      "id": "b48d5554-87cc-4c9f-a969-15f0f08b8188",
      "name": "ひかり作業所",
      "lat": 35.630017,
      "lon": 139.5917,
      "category": "public",
      "major_code": null,
      "sub_code": null,
      "year": "2021"
    },
    {
      "id": "dd980b01-9075-4ff8-8892-d1d12896bb91",
      "name": "東梅寮",
      "lat": 35.680402,
      "lon": 139.672719,
      "category": "public",
      "major_code": null,
      "sub_code": null,
      "year": "2021"
    },
    {
      "id": "9d4d7782-202d-4696-8f1c-cb5d85e50fc2",
      "name": "ＳＳＳ１４大蔵クラブ",
      "lat": 35.625657,
      "lon": 139.612087,
      "category": "public",
      "major_code": null,
      "sub_code": null,
      "year": "2021"
    },
    {
      "id": "6e0b9d9b-7c19-4a7f-98cf-6e9f26b1c0b7",
      "name": "世田谷保育園",
      "lat": 35.647683,
      "lon": 139.656971,
      "category": "public",
      "major_code": null,
      "sub_code": null,
      "year": "2021"
    },
    {
      "id": "7bea5900-c847-4d01-b557-6a66e17835e7",
      "name": "上祖師谷南保育園",
      "lat": 35.653958,
      "lon": 139.597032,
      "category": "public",
      "major_code": null,
      "sub_code": null,
      "year": "2021"
    },
    {
      "id": "7f03a568-e97b-4132-8a70-753dbc103e3f",
      "name": "のぞみ保育園",
      "lat": 35.655016,
      "lon": 139.682025,
      "category": "public",
      "major_code": null,
      "sub_code": null,
      "year": "2021"
    },
    {
      "id": "80b8efcd-5c40-4b6e-a536-ddcf4f6d83f2",
      "name": "希望丘保育園",
      "lat": 35.658153,
      "lon": 139.620918,
      "category": "public",
      "major_code": null,
      "sub_code": null,
      "year": "2021"
    },
    {
      "id": "864ff560-42b1-4f57-8e59-838a242bd28f",
      "name": "深沢保育園",
      "lat": 35.620464,
      "lon": 139.650584,
      "category": "public",
      "major_code": null,
      "sub_code": null,
      "year": "2021"
    },
    {
      "id": "a9f69268-9bd3-49f6-b514-0f90991f8a8c",
      "name": "大岡山保育園",
      "lat": 35.610132,
      "lon": 139.680387,
      "category": "public",
      "major_code": null,
      "sub_code": null,
      "year": "2021"
    },
    {
      "id": "b988761e-3b0b-4409-bb66-4351100a554f",
      "name": "上祖師谷保育園",
      "lat": 35.663235,
      "lon": 139.601225,
      "category": "public",
      "major_code": null,
      "sub_code": null,
      "year": "2021"
    },
    {
      "id": "b9aaceaf-e404-4055-9390-bb7dcd1510c1",
      "name": "祖師谷保育園",
      "lat": 35.656791,
      "lon": 139.600753,
      "category": "public",
      "major_code": null,
      "sub_code": null,
      "year": "2021"
    },
    {
      "id": "be953c8b-12f6-44bf-8356-d6d123898b9d",
      "name": "わかな保育園",
      "lat": 35.614631,
      "lon": 139.631503,
      "category": "public",
      "major_code": null,
      "sub_code": null,
      "year": "2021"
    },
    {
      "id": "c6f0e3b1-6f9b-42fc-8016-7a3e6303a124",
      "name": "上北沢保育園",
      "lat": 35.669707,
      "lon": 139.620057,
      "category": "public",
      "major_code": null,
      "sub_code": null,
      "year": "2021"
    },
    {
      "id": "cbdbd57a-7b80-460e-88e8-98dadcd31f16",
      "name": "祖師谷わかば保育園",
      "lat": 35.648293,
      "lon": 139.61242,
      "category": "public",
      "major_code": null,
      "sub_code": null,
      "year": "2021"
    },
    {
      "id": "cccef3a9-a5d7-4a8f-94b3-0122d5d1bec9",
      "name": "駒沢保育園",
      "lat": 35.633657,
      "lon": 139.665304,
      "category": "public",
      "major_code": null,
      "sub_code": null,
      "year": "2021"
    },
    {
      "id": "9e804f65-7859-4f4b-b510-977f1f5a795c",
      "name": "中町保育園",
      "lat": 35.615436,
      "lon": 139.642529,
      "category": "public",
      "major_code": null,
      "sub_code": null,
      "year": "2021"
    },
    {
      "id": "ad0ce7a1-9d00-42b3-ace2-984d0334be09",
      "name": "三軒茶屋保育園",
      "lat": 35.640573,
      "lon": 139.66972,
      "category": "public",
      "major_code": null,
      "sub_code": null,
      "year": "2021"
    },
    {
      "id": "b021e0ca-f554-4ec8-80cb-7196b559b32a",
      "name": "下北沢保育園",
      "lat": 35.659543,
      "lon": 139.665776,
      "category": "public",
      "major_code": null,
      "sub_code": null,
      "year": "2021"
    },
    {
      "id": "c438816e-ba98-41d9-82fe-c1ddf832394d",
      "name": "鳥山杉の子保育園",
      "lat": 35.664874,
      "lon": 139.60603,
      "category": "public",
      "major_code": null,
      "sub_code": null,
      "year": "2021"
    },
    {
      "id": "c9873e7a-ae15-406c-8f4a-e0db6daac635",
      "name": "上用賀保育園",
      "lat": 35.634906,
      "lon": 139.630391,
      "category": "public",
      "major_code": null,
      "sub_code": null,
      "year": "2021"
    },
    {
      "id": "f30e38ba-b828-49ac-bdde-2dae11c64cc0",
      "name": "わかくさ保育園",
      "lat": 35.649127,
      "lon": 139.635529,
      "category": "public",
      "major_code": null,
      "sub_code": null,
      "year": "2021"
    },
    {
      "id": "cac23f64-948b-43f7-bcb0-18ac0081167a",
      "name": "みなみ保育園",
      "lat": 35.681346,
      "lon": 139.660442,
      "category": "public",
      "major_code": null,
      "sub_code": null,
      "year": "2021"
    },
    {
      "id": "d71d7b17-b0a8-4126-bc51-a70c47257c46",
      "name": "上水保育園",
      "lat": 35.677234,
      "lon": 139.61589,
      "category": "public",
      "major_code": null,
      "sub_code": null,
      "year": "2021"
    },
    {
      "id": "8b81dddb-9910-4be2-bf19-e7a165212250",
      "name": "幡ケ谷保育園",
      "lat": 35.68322,
      "lon": 139.676093,
      "category": "public",
      "major_code": null,
      "sub_code": null,
      "year": "2021"
    },
    {
      "id": "9be645d6-e7ab-4de3-9f78-ddf826dd851d",
      "name": "本町第二保育園",
      "lat": 35.682096,
      "lon": 139.679524,
      "category": "public",
      "major_code": null,
      "sub_code": null,
      "year": "2021"
    },
    {
      "id": "be49a44a-2f9c-4aaf-b229-52a59195bb4b",
      "name": "幡ケ谷第三保育園",
      "lat": 35.677874,
      "lon": 139.671608,
      "category": "public",
      "major_code": null,
      "sub_code": null,
      "year": "2021"
    },
    {
      "id": "d1d6e9a2-988d-4a20-a7b5-e6415fe28a93",
      "name": "等々力保育園",
      "lat": 35.608937,
      "lon": 139.658389,
      "category": "public",
      "major_code": null,
      "sub_code": null,
      "year": "2021"
    },
    {
      "id": "e60a5616-f856-453f-80b1-322bb17f3faf",
      "name": "方南隣保館保育園",
      "lat": 35.674569,
      "lon": 139.660526,
      "category": "public",
      "major_code": null,
      "sub_code": null,
      "year": "2021"
    },
    {
      "id": "9d7bfbe9-3f58-43c3-9f85-70cf6b7bfa34",
      "name": "駒井保育園",
      "lat": 35.624407,
      "lon": 139.58759,
      "category": "public",
      "major_code": null,
      "sub_code": null,
      "year": "2021"
    },
    {
      "id": "d82b3590-c537-45ff-b6e6-8aa19ecc51c4",
      "name": "高津警察署二子橋交番",
      "lat": 35.608077,
      "lon": 139.622754,
      "category": "public",
      "major_code": null,
      "sub_code": null,
      "year": "2021"
    },
    {
      "id": "c64184cf-8edf-46d2-849f-1c9f210b6c9e",
      "name": "私立洗足学園中学校",
      "lat": 35.59539,
      "lon": 139.614314,
      "category": "public",
      "major_code": null,
      "sub_code": null,
      "year": "2021"
    },
    {
      "id": "2bc49928-9827-4e39-994f-e80c7941f8e6",
      "name": "洗足学園大学附属幼稚園",
      "lat": 35.595634,
      "lon": 139.613729,
      "category": "public",
      "major_code": null,
      "sub_code": null,
      "year": "2021"
    },
    {
      "id": "92d9c01f-0ff6-4478-bb8d-6332dd1e3a2b",
      "name": "つぼみ幼稚園",
      "lat": 35.591496,
      "lon": 139.633338,
      "category": "public",
      "major_code": null,
      "sub_code": null,
      "year": "2021"
    },
    {
      "id": "f622e0c3-a186-4ce2-baf2-d8beaa6c86ba",
      "name": "川崎たまがわ幼稚園",
      "lat": 35.592079,
      "lon": 139.623533,
      "category": "public",
      "major_code": null,
      "sub_code": null,
      "year": "2021"
    },
    {
      "id": "9be5fde9-10ac-477d-aa82-af6fc563a90a",
      "name": "川崎市上作延老人いこいの家",
      "lat": 35.596801,
      "lon": 139.600286,
      "category": "public",
      "major_code": null,
      "sub_code": null,
      "year": "2021"
    },
    {
      "id": "313129c0-1fa0-4b59-be18-5c6f13233914",
      "name": "川崎市東高津こども文化センター",
      "lat": 35.597456,
      "lon": 139.636706,
      "category": "public",
      "major_code": null,
      "sub_code": null,
      "year": "2021"
    },
    {
      "id": "521da656-ab2b-4717-b459-f0725c7557cb",
      "name": "高津警察署北見方交番",
      "lat": 35.600566,
      "lon": 139.622202,
      "category": "public",
      "major_code": null,
      "sub_code": null,
      "year": "2021"
    },
    {
      "id": "db15a78e-e042-4271-8234-25a9c1349b96",
      "name": "市立南原小学校",
      "lat": 35.596856,
      "lon": 139.589398,
      "category": "public",
      "major_code": null,
      "sub_code": null,
      "year": "2021"
    },
    {
      "id": "21840741-f31d-4742-b811-806dd64c286d",
      "name": "川崎市立高津高等学校",
      "lat": 35.596258,
      "lon": 139.616755,
      "category": "public",
      "major_code": null,
      "sub_code": null,
      "year": "2021"
    },
    {
      "id": "97229d8a-e12a-4709-8204-2e4085a261ac",
      "name": "滋恵会安藤整形外科病院",
      "lat": 35.598775,
      "lon": 139.613389,
      "category": "public",
      "major_code": null,
      "sub_code": null,
      "year": "2021"
    },
    {
      "id": "4437368a-3aea-4bdd-883e-67603dfad7d9",
      "name": "すえなが在宅介護支援センター",
      "lat": 35.595496,
      "lon": 139.60923,
      "category": "public",
      "major_code": null,
      "sub_code": null,
      "year": "2021"
    },
    {
      "id": "2111aac3-f975-45ee-a8ea-2eb1aeb307de",
      "name": "川崎市特別養護老人ホーム　しゅくがわら",
      "lat": 35.611215,
      "lon": 139.585064,
      "category": "public",
      "major_code": null,
      "sub_code": null,
      "year": "2021"
    },
    {
      "id": "80974ad1-68ae-4504-b706-c3bb22407b4f",
      "name": "あかしあ園",
      "lat": 35.596662,
      "lon": 139.594564,
      "category": "public",
      "major_code": null,
      "sub_code": null,
      "year": "2021"
    },
    {
      "id": "e4d83a0f-cea1-4f4c-931e-cdbb869c6c4f",
      "name": "わかたけ作業所",
      "lat": 35.610751,
      "lon": 139.613494,
      "category": "public",
      "major_code": null,
      "sub_code": null,
      "year": "2021"
    },
    {
      "id": "fd3497bd-8c4d-4ba7-a6a9-39fcb3de96d2",
      "name": "川崎市くさぶえの家",
      "lat": 35.590107,
      "lon": 139.62009,
      "category": "public",
      "major_code": null,
      "sub_code": null,
      "year": "2021"
    },
    {
      "id": "7b192531-ba7d-4294-a4cd-a2d3fe09efa2",
      "name": "下作延中央保育園",
      "lat": 35.600439,
      "lon": 139.605646,
      "category": "public",
      "major_code": null,
      "sub_code": null,
      "year": "2021"
    },
    {
      "id": "abd64461-ae09-4f0b-9ad5-a34707140a0b",
      "name": "坂戸保育園",
      "lat": 35.595329,
      "lon": 139.62295,
      "category": "public",
      "major_code": null,
      "sub_code": null,
      "year": "2021"
    },
    {
      "id": "c657e22f-8194-44b1-9e31-8b2c1b989b4d",
      "name": "川崎下作延郵便局",
      "lat": 35.598967,
      "lon": 139.608646,
      "category": "public",
      "major_code": null,
      "sub_code": null,
      "year": "2021"
    },
    {
      "id": "eb75663f-3dba-43ff-99e6-cc5a1fb024f5",
      "name": "溝ノ口ノクティビル内郵便局",
      "lat": 35.59905,
      "lon": 139.611923,
      "category": "public",
      "major_code": null,
      "sub_code": null,
      "year": "2021"
    },
    {
      "id": "ef703dc8-3ea9-4ea4-85b8-0ccd66f79525",
      "name": "川崎堰郵便局",
      "lat": 35.613048,
      "lon": 139.594396,
      "category": "public",
      "major_code": null,
      "sub_code": null,
      "year": "2021"
    },
    {
      "id": "afacf4be-845e-412f-be20-1c59b67140f5",
      "name": "西原敬老館",
      "lat": 35.674163,
      "lon": 139.67485,
      "category": "public",
      "major_code": null,
      "sub_code": null,
      "year": "2021"
    },
    {
      "id": "c629e019-2206-4070-86d9-462bec7cb419",
      "name": "社会福祉法人セイワ　すえなが",
      "lat": 35.595496,
      "lon": 139.60923,
      "category": "public",
      "major_code": null,
      "sub_code": null,
      "year": "2021"
    },
    {
      "id": "ee3d7515-c0a4-4b38-96a3-23c203f94c9d",
      "name": "ハッピーセンター神奈川在宅介護支援センター",
      "lat": 35.6003,
      "lon": 139.60709,
      "category": "public",
      "major_code": null,
      "sub_code": null,
      "year": "2021"
    },
    {
      "id": "f2352d99-485c-42ff-b274-334cd058dac6",
      "name": "ケアハウスすえなが",
      "lat": 35.595496,
      "lon": 139.60923,
      "category": "public",
      "major_code": null,
      "sub_code": null,
      "year": "2021"
    },
    {
      "id": "8c443ffa-e5fb-4ffa-86db-63619e46ec32",
      "name": "区立田園調布中学校",
      "lat": 35.598245,
      "lon": 139.669556,
      "category": "public",
      "major_code": null,
      "sub_code": null,
      "year": "2021"
    },
    {
      "id": "a2e3a164-d771-4e0c-9640-8d8dd7bea330",
      "name": "多摩美術大学（造形表現学部）",
      "lat": 35.614353,
      "lon": 139.635669,
      "category": "public",
      "major_code": null,
      "sub_code": null,
      "year": "2021"
    },
    {
      "id": "f1a597b1-7102-4c5a-92c0-104e0d2414f1",
      "name": "玉川幼稚園",
      "lat": 35.624602,
      "lon": 139.614643,
      "category": "public",
      "major_code": null,
      "sub_code": null,
      "year": "2021"
    },
    {
      "id": "bcb3135e-c74d-4903-beb8-e5fab716f442",
      "name": "世田谷北沢三郵便局",
      "lat": 35.666903,
      "lon": 139.672775,
      "category": "public",
      "major_code": null,
      "sub_code": null,
      "year": "2021"
    },
    {
      "id": "40793030-856e-4bb1-83e4-3dba22e9b648",
      "name": "特別養護老人ホーム第三南陽園",
      "lat": 35.680375,
      "lon": 139.609633,
      "category": "public",
      "major_code": null,
      "sub_code": null,
      "year": "2021"
    },
    {
      "id": "69e0956a-465a-4022-8343-54377eba2962",
      "name": "自由が丘住区宮前分室老人いこいの家",
      "lat": 35.615742,
      "lon": 139.665277,
      "category": "public",
      "major_code": null,
      "sub_code": null,
      "year": "2021"
    },
    {
      "id": "187c101c-a5fe-4ac4-9d89-e96a1156b17f",
      "name": "大橋えのき園",
      "lat": 35.655349,
      "lon": 139.681969,
      "category": "public",
      "major_code": null,
      "sub_code": null,
      "year": "2021"
    },
    {
      "id": "9415c45f-29bf-4ae9-86ab-c2e12832e232",
      "name": "梅丘保育園",
      "lat": 35.660015,
      "lon": 139.653194,
      "category": "public",
      "major_code": null,
      "sub_code": null,
      "year": "2021"
    },
    {
      "id": "363e71f6-adaa-49a4-8786-f867d1f6fb49",
      "name": "かながわサイエンスパーク内郵便局",
      "lat": 35.594912,
      "lon": 139.620728,
      "category": "public",
      "major_code": null,
      "sub_code": null,
      "year": "2021"
    },
    {
      "id": "c93c6b1a-4526-4b3f-8e7c-c3d8f53c454d",
      "name": "川崎市東高津老人いこいの家",
      "lat": 35.597456,
      "lon": 139.636706,
      "category": "public",
      "major_code": null,
      "sub_code": null,
      "year": "2021"
    },
    {
      "id": "aff23a76-85a6-46a7-993e-b2ede7cd6e4d",
      "name": "東京国税局北沢税務署",
      "lat": 35.660015,
      "lon": 139.652277,
      "category": "public",
      "major_code": null,
      "sub_code": null,
      "year": "2021"
    },
    {
      "id": "ec91ec05-948a-4117-9c3a-93f37397c89f",
      "name": "成城警察署成城交番",
      "lat": 35.64046,
      "lon": 139.599171,
      "category": "public",
      "major_code": null,
      "sub_code": null,
      "year": "2021"
    },
    {
      "id": "fa86e928-1a69-41b9-8a52-956f231a5921",
      "name": "玉川警察署奥沢駅前交番",
      "lat": 35.604188,
      "lon": 139.67186,
      "category": "public",
      "major_code": null,
      "sub_code": null,
      "year": "2021"
    },
    {
      "id": "fbe3ac37-853f-48fb-981c-3784dff67d48",
      "name": "成城警察署烏山下宿交番",
      "lat": 35.671373,
      "lon": 139.606086,
      "category": "public",
      "major_code": null,
      "sub_code": null,
      "year": "2021"
    },
    {
      "id": "ce452233-9be7-4c3a-97f8-ae1779c3089c",
      "name": "調布警察署仙川交番",
      "lat": 35.66212,
      "lon": 139.585374,
      "category": "public",
      "major_code": null,
      "sub_code": null,
      "year": "2021"
    },
    {
      "id": "bb490c31-c2d2-4735-a3d4-2dae1e5d748e",
      "name": "渋谷消防署代々木出張所",
      "lat": 35.680458,
      "lon": 139.684718,
      "category": "public",
      "major_code": null,
      "sub_code": null,
      "year": "2021"
    },
    {
      "id": "d2052c1f-d05c-4738-bb55-e8e47f695de8",
      "name": "区立調布大塚小学校",
      "lat": 35.590774,
      "lon": 139.678194,
      "category": "public",
      "major_code": null,
      "sub_code": null,
      "year": "2021"
    },
    {
      "id": "aafb41a4-51b6-4c8a-9048-c9f60a293058",
      "name": "区立経堂小学校",
      "lat": 35.65632,
      "lon": 139.630945,
      "category": "public",
      "major_code": null,
      "sub_code": null,
      "year": "2021"
    },
    {
      "id": "c2fa2023-e746-4ce1-949f-471de2fe2a45",
      "name": "区立九品仏小学校",
      "lat": 35.603299,
      "lon": 139.660084,
      "category": "public",
      "major_code": null,
      "sub_code": null,
      "year": "2021"
    },
    {
      "id": "d006c91c-c7c3-43b4-9d18-f68293b95c59",
      "name": "区立池之上小学校",
      "lat": 35.660015,
      "lon": 139.67372,
      "category": "public",
      "major_code": null,
      "sub_code": null,
      "year": "2021"
    },
    {
      "id": "d2261b88-fadb-42a2-9842-de2db6ff8ce2",
      "name": "区立花見堂小学校",
      "lat": 35.65196,
      "lon": 139.662721,
      "category": "public",
      "major_code": null,
      "sub_code": null,
      "year": "2021"
    },
    {
      "id": "e4c51542-594f-4400-ac3c-b1932e08215e",
      "name": "区立上原小学校",
      "lat": 35.66632,
      "lon": 139.679052,
      "category": "public",
      "major_code": null,
      "sub_code": null,
      "year": "2021"
    },
    {
      "id": "ec0b662a-d1cd-4aa3-9c91-a0b80096d873",
      "name": "区立松沢小学校",
      "lat": 35.665597,
      "lon": 139.639444,
      "category": "public",
      "major_code": null,
      "sub_code": null,
      "year": "2021"
    },
    {
      "id": "f673a960-348c-4c0a-b561-3382819c7d07",
      "name": "区立西原小学校",
      "lat": 35.674097,
      "lon": 139.678802,
      "category": "public",
      "major_code": null,
      "sub_code": null,
      "year": "2021"
    },
    {
      "id": "420e6c5c-2d57-4bb5-91e1-c6c06c64f472",
      "name": "区立新山小学校",
      "lat": 35.681735,
      "lon": 139.668164,
      "category": "public",
      "major_code": null,
      "sub_code": null,
      "year": "2021"
    },
    {
      "id": "e8e4cf3c-4fe2-4d1f-8ce4-5da39061af7a",
      "name": "区立赤堤小学校",
      "lat": 35.656126,
      "lon": 139.636806,
      "category": "public",
      "major_code": null,
      "sub_code": null,
      "year": "2021"
    },
    {
      "id": "f59c93af-3589-44c3-b2ed-e819a4e2b015",
      "name": "区立砧小学校",
      "lat": 35.631767,
      "lon": 139.60531,
      "category": "public",
      "major_code": null,
      "sub_code": null,
      "year": "2021"
    },
    {
      "id": "6421c83b-e89b-4a28-a774-9c55c446612c",
      "name": "私立鴎友学園女子中学校",
      "lat": 35.647294,
      "lon": 139.640334,
      "category": "public",
      "major_code": null,
      "sub_code": null,
      "year": "2021"
    },
    {
      "id": "8b8a3cc5-ae56-4217-bd1d-bba2e4882a05",
      "name": "私立昭和女子大学附属昭和中学校",
      "lat": 35.643906,
      "lon": 139.674359,
      "category": "public",
      "major_code": null,
      "sub_code": null,
      "year": "2021"
    },
    {
      "id": "5f4b9376-43c4-451d-ae76-18b54d12a621",
      "name": "私立玉川聖学院高等部",
      "lat": 35.606715,
      "lon": 139.663611,
      "category": "public",
      "major_code": null,
      "sub_code": null,
      "year": "2021"
    },
    {
      "id": "fed29303-b600-49b1-b5a9-b11b40f5137b",
      "name": "私立日本大学櫻丘高等学校",
      "lat": 35.661875,
      "lon": 139.632529,
      "category": "public",
      "major_code": null,
      "sub_code": null,
      "year": "2021"
    },
    {
      "id": "b11676eb-26b6-4568-a94c-e0baee26c680",
      "name": "成城大学短期大学部",
      "lat": 35.64221,
      "lon": 139.601504,
      "category": "public",
      "major_code": null,
      "sub_code": null,
      "year": "2021"
    },
    {
      "id": "e258ccb1-50d3-4b17-9a0d-a5ea9c0ba9cb",
      "name": "日本大学（文理学部）",
      "lat": 35.662431,
      "lon": 139.633639,
      "category": "public",
      "major_code": null,
      "sub_code": null,
      "year": "2021"
    },
    {
      "id": "7a874121-f2c4-4fef-ac58-cab0e5297aee",
      "name": "国士舘大学（法学部）",
      "lat": 35.648599,
      "lon": 139.653666,
      "category": "public",
      "major_code": null,
      "sub_code": null,
      "year": "2021"
    },
    {
      "id": "b58129ef-ce2e-47b0-8cd3-9b76a5f1c907",
      "name": "光明養護学校",
      "lat": 35.657543,
      "lon": 139.651416,
      "category": "public",
      "major_code": null,
      "sub_code": null,
      "year": "2021"
    },
    {
      "id": "bb5b10ff-57ee-4a3a-bc23-5563735fb48a",
      "name": "コドモの園幼稚園",
      "lat": 35.63549,
      "lon": 139.662582,
      "category": "public",
      "major_code": null,
      "sub_code": null,
      "year": "2021"
    },
    {
      "id": "e12f3adc-c90a-4505-944c-3415bea0881a",
      "name": "みどりがおか幼稚園",
      "lat": 35.609438,
      "lon": 139.674304,
      "category": "public",
      "major_code": null,
      "sub_code": null,
      "year": "2021"
    },
    {
      "id": "4dfc7f00-0000-4606-a66b-23da35d69d57",
      "name": "小羊幼稚園",
      "lat": 35.675901,
      "lon": 139.641194,
      "category": "public",
      "major_code": null,
      "sub_code": null,
      "year": "2021"
    },
    {
      "id": "56fff8e2-1ccb-48d7-865c-2b4d3debe3ca",
      "name": "日扇会第一病院",
      "lat": 35.614715,
      "lon": 139.676582,
      "category": "public",
      "major_code": null,
      "sub_code": null,
      "year": "2021"
    },
    {
      "id": "b3a4f8b5-aaa2-48bc-8fd5-e5e34e0acf54",
      "name": "回心会回心堂病院",
      "lat": 35.677847,
      "lon": 139.676552,
      "category": "public",
      "major_code": null,
      "sub_code": null,
      "year": "2021"
    },
    {
      "id": "260214f3-363f-4aa6-ab6e-07c025875434",
      "name": "日産厚生会玉川病院",
      "lat": 35.620436,
      "lon": 139.624281,
      "category": "public",
      "major_code": null,
      "sub_code": null,
      "year": "2021"
    },
    {
      "id": "2f593986-776b-47c5-aaa7-13867466fe51",
      "name": "東京多摩病院",
      "lat": 35.632517,
      "lon": 139.586339,
      "category": "public",
      "major_code": null,
      "sub_code": null,
      "year": "2021"
    },
    {
      "id": "7e9bb9b5-96c1-4b13-9555-7965343d2cf7",
      "name": "目黒駒場郵便局",
      "lat": 35.657766,
      "lon": 139.686413,
      "category": "public",
      "major_code": null,
      "sub_code": null,
      "year": "2021"
    },
    {
      "id": "6ec67e7e-cc34-446d-b52d-6b83d7c364e2",
      "name": "目黒八雲二郵便局",
      "lat": 35.61752,
      "lon": 139.668638,
      "category": "public",
      "major_code": null,
      "sub_code": null,
      "year": "2021"
    },
    {
      "id": "bcf57525-87d4-4c63-a565-17bc5e1d9f9e",
      "name": "世田谷四郵便局",
      "lat": 35.645166,
      "lon": 139.65099,
      "category": "public",
      "major_code": null,
      "sub_code": null,
      "year": "2021"
    },
    {
      "id": "3dee204b-c7da-4ec1-b178-6d69623bd018",
      "name": "中野南台郵便局",
      "lat": 35.682679,
      "lon": 139.664581,
      "category": "public",
      "major_code": null,
      "sub_code": null,
      "year": "2021"
    },
    {
      "id": "d7f4bc01-c707-4c0d-99f5-3883915a8462",
      "name": "千歳船橋駅前郵便局",
      "lat": 35.648639,
      "lon": 139.624075,
      "category": "public",
      "major_code": null,
      "sub_code": null,
      "year": "2021"
    },
    {
      "id": "7f8ef264-36e9-46eb-937f-2a6ac6e54a77",
      "name": "大田区在宅介護支援センター田園調布医師会",
      "lat": 35.598078,
      "lon": 139.683749,
      "category": "public",
      "major_code": null,
      "sub_code": null,
      "year": "2021"
    },
    {
      "id": "c4ab7e11-dd4b-4055-a0a0-66f2f6062eca",
      "name": "世田谷区芦花在宅介護支援センター",
      "lat": 35.665791,
      "lon": 139.609808,
      "category": "public",
      "major_code": null,
      "sub_code": null,
      "year": "2021"
    },
    {
      "id": "debbd829-2dc9-4294-ac20-9f0e6116e992",
      "name": "世田谷区祖師谷在宅介護支援センター",
      "lat": 35.649654,
      "lon": 139.606281,
      "category": "public",
      "major_code": null,
      "sub_code": null,
      "year": "2021"
    },
    {
      "id": "eb52756c-0ff8-4bff-90fd-4a79eac6c4ca",
      "name": "桜高齢者集会所",
      "lat": 35.645738,
      "lon": 139.646167,
      "category": "public",
      "major_code": null,
      "sub_code": null,
      "year": "2021"
    },
    {
      "id": "6adb0acf-eaf2-4384-ade0-7199e7c4b5be",
      "name": "目黒区立東山児童館",
      "lat": 35.647878,
      "lon": 139.685358,
      "category": "public",
      "major_code": null,
      "sub_code": null,
      "year": "2021"
    },
    {
      "id": "840aac99-d838-483e-a359-a2a0e4be03d4",
      "name": "喜多見児童館",
      "lat": 35.625046,
      "lon": 139.593728,
      "category": "public",
      "major_code": null,
      "sub_code": null,
      "year": "2021"
    },
    {
      "id": "ef598881-2f82-442e-8248-5e53cdc1e88e",
      "name": "母子保健院",
      "lat": 35.644405,
      "lon": 139.642806,
      "category": "public",
      "major_code": null,
      "sub_code": null,
      "year": "2021"
    },
    {
      "id": "68c25d70-31bb-431b-8f53-b2dce7d22a8a",
      "name": "産業能率大学（経営学部）",
      "lat": 35.613512,
      "lon": 139.661652,
      "category": "public",
      "major_code": null,
      "sub_code": null,
      "year": "2021"
    },
    {
      "id": "3c6fec3b-e09f-4ebb-8244-43f4634be50d",
      "name": "ベテル幼稚園",
      "lat": 35.619548,
      "lon": 139.675248,
      "category": "public",
      "major_code": null,
      "sub_code": null,
      "year": "2021"
    },
    {
      "id": "2d7906dd-c94f-49b1-bbb1-02c425742d39",
      "name": "区立玉川中学校",
      "lat": 35.616714,
      "lon": 139.643474,
      "category": "public",
      "major_code": null,
      "sub_code": null,
      "year": "2021"
    },
    {
      "id": "e7a582e2-9230-4fa1-84b5-6582cfb93b03",
      "name": "笹塚幼稚園",
      "lat": 35.672903,
      "lon": 139.666942,
      "category": "public",
      "major_code": null,
      "sub_code": null,
      "year": "2021"
    },
    {
      "id": "aaefa3f2-d879-4a45-8dc1-77744850ca33",
      "name": "レストンナク幼稚園",
      "lat": 35.676652,
      "lon": 139.652387,
      "category": "public",
      "major_code": null,
      "sub_code": null,
      "year": "2021"
    },
    {
      "id": "0053af52-2ffc-428c-b6d1-cb064c37857d",
      "name": "代沢地区会館",
      "lat": 35.657488,
      "lon": 139.668081,
      "category": "public",
      "major_code": null,
      "sub_code": null,
      "year": "2021"
    },
    {
      "id": "3c7083ea-ade6-4423-89a6-4c2c8eecd2b0",
      "name": "船橋東保育園",
      "lat": 35.654792,
      "lon": 139.62764,
      "category": "public",
      "major_code": null,
      "sub_code": null,
      "year": "2021"
    },
    {
      "id": "2a48bc01-7ff7-42f5-ac0b-c50e0fe01f87",
      "name": "諏訪幼稚園",
      "lat": 35.603577,
      "lon": 139.629948,
      "category": "public",
      "major_code": null,
      "sub_code": null,
      "year": "2021"
    },
    {
      "id": "e36a4d08-a187-4b23-829d-11b3e69372c5",
      "name": "区立京西小学校",
      "lat": 35.629101,
      "lon": 139.631446,
      "category": "public",
      "major_code": null,
      "sub_code": null,
      "year": "2021"
    },
    {
      "id": "1c6e5d77-c103-4140-8795-1e25e76d33eb",
      "name": "区立桜丘中学校",
      "lat": 35.643655,
      "lon": 139.62964,
      "category": "public",
      "major_code": null,
      "sub_code": null,
      "year": "2021"
    },
    {
      "id": "3ab5b90d-23af-44a3-8c04-3a1c1d12a5c1",
      "name": "三島幼稚園",
      "lat": 35.620158,
      "lon": 139.651167,
      "category": "public",
      "major_code": null,
      "sub_code": null,
      "year": "2021"
    },
    {
      "id": "d575348d-36e4-42c2-bfba-71dbd1405bd5",
      "name": "ロイヤルライフ奥沢",
      "lat": 35.603218,
      "lon": 139.672634,
      "category": "public",
      "major_code": null,
      "sub_code": null,
      "year": "2021"
    },
    {
      "id": "d70bd197-60f2-4a1e-9c09-dc12a176ed81",
      "name": "大宮保育園",
      "lat": 35.683234,
      "lon": 139.636166,
      "category": "public",
      "major_code": null,
      "sub_code": null,
      "year": "2021"
    },
    {
      "id": "a1249a45-4cc9-45c8-9bc4-b3c3dd5cca96",
      "name": "ＳＳＳ２",
      "lat": 35.632407,
      "lon": 139.646306,
      "category": "public",
      "major_code": null,
      "sub_code": null,
      "year": "2021"
    },
    {
      "id": "e39444f4-24cf-4aa6-8d3d-41c4dd9a63da",
      "name": "小規模通所授産施設ざしきわらし",
      "lat": 35.642904,
      "lon": 139.606337,
      "category": "public",
      "major_code": null,
      "sub_code": null,
      "year": "2021"
    },
    {
      "id": "9172bf19-5bf6-4ace-a08f-2ea835863f3e",
      "name": "区立中根小学校",
      "lat": 35.612715,
      "lon": 139.67836,
      "category": "public",
      "major_code": null,
      "sub_code": null,
      "year": "2021"
    },
    {
      "id": "79989593-a360-42cc-9780-e8518dec9395",
      "name": "フランシスコヴィラ",
      "lat": 35.633406,
      "lon": 139.629419,
      "category": "public",
      "major_code": null,
      "sub_code": null,
      "year": "2021"
    },
    {
      "id": "40441b4c-dfca-4318-a787-5e83524a4947",
      "name": "泉の家",
      "lat": 35.623824,
      "lon": 139.616504,
      "category": "public",
      "major_code": null,
      "sub_code": null,
      "year": "2021"
    },
    {
      "id": "5b8d3b95-3199-4b02-bf36-a1f08e3cd1e1",
      "name": "幡ヶ谷南郵便局",
      "lat": 35.676097,
      "lon": 139.676746,
      "category": "public",
      "major_code": null,
      "sub_code": null,
      "year": "2021"
    },
    {
      "id": "c0e8cad1-2a45-4b74-ae67-a62d6d043db5",
      "name": "こひつじ幼稚園",
      "lat": 35.617908,
      "lon": 139.630447,
      "category": "public",
      "major_code": null,
      "sub_code": null,
      "year": "2021"
    },
    {
      "id": "76405bc7-b940-4c25-a2af-c5386f19ff0f",
      "name": "世田谷奥沢郵便局",
      "lat": 35.604577,
      "lon": 139.671777,
      "category": "public",
      "major_code": null,
      "sub_code": null,
      "year": "2021"
    },
    {
      "id": "f6c7e378-dc90-4f88-9b37-c5164e67574f",
      "name": "区立宮前小学校",
      "lat": 35.615353,
      "lon": 139.666999,
      "category": "public",
      "major_code": null,
      "sub_code": null,
      "year": "2021"
    },
    {
      "id": "92570c5f-b097-43ec-bbec-328af32d306b",
      "name": "川崎市末長こども文化センター",
      "lat": 35.590107,
      "lon": 139.62009,
      "category": "public",
      "major_code": null,
      "sub_code": null,
      "year": "2021"
    },
    {
      "id": "b655fe9d-d695-43eb-b4f8-73130f0dd1d5",
      "name": "区立旭小学校",
      "lat": 35.635324,
      "lon": 139.670248,
      "category": "public",
      "major_code": null,
      "sub_code": null,
      "year": "2021"
    },
    {
      "id": "97b9dc8b-ea19-42f8-8613-e3d02dbe5daa",
      "name": "市立高津小学校",
      "lat": 35.604937,
      "lon": 139.614167,
      "category": "public",
      "major_code": null,
      "sub_code": null,
      "year": "2021"
    },
    {
      "id": "f8b580d1-ced1-43e5-960a-998b3c41aa29",
      "name": "みぞのくち保育園",
      "lat": 35.605022,
      "lon": 139.614867,
      "category": "public",
      "major_code": null,
      "sub_code": null,
      "year": "2021"
    },
    {
      "id": "ab682d27-4a31-44da-b336-261d0bdeb42f",
      "name": "世田谷警察署野沢交番",
      "lat": 35.630046,
      "lon": 139.671693,
      "category": "public",
      "major_code": null,
      "sub_code": null,
      "year": "2021"
    },
    {
      "id": "c237a998-3559-42c8-8403-8ecbc0212ea3",
      "name": "世田谷警察署松ヶ丘交番",
      "lat": 35.640072,
      "lon": 139.640751,
      "category": "public",
      "major_code": null,
      "sub_code": null,
      "year": "2021"
    },
    {
      "id": "efe432df-0e89-42f1-977c-f6e552db6efd",
      "name": "玉川警察署瀬田交番",
      "lat": 35.620107,
      "lon": 139.630493,
      "category": "public",
      "major_code": null,
      "sub_code": null,
      "year": "2021"
    },
    {
      "id": "f7234d04-c445-4b02-a25a-34b36c54e25d",
      "name": "玉川警察署上野毛交番",
      "lat": 35.612048,
      "lon": 139.638391,
      "category": "public",
      "major_code": null,
      "sub_code": null,
      "year": "2021"
    },
    {
      "id": "fddf0caf-c886-4ec6-9593-6411e8cdcd42",
      "name": "高井戸警察署上高井戸交番",
      "lat": 35.672096,
      "lon": 139.614252,
      "category": "public",
      "major_code": null,
      "sub_code": null,
      "year": "2021"
    },
    {
      "id": "c26d54a0-3266-4032-bc61-591bae982315",
      "name": "玉川消防署",
      "lat": 35.614853,
      "lon": 139.648612,
      "category": "public",
      "major_code": null,
      "sub_code": null,
      "year": "2021"
    },
    {
      "id": "cd521064-49cb-4fc0-bc41-5ecfa50c8205",
      "name": "区立松丘小学校",
      "lat": 35.638878,
      "lon": 139.644389,
      "category": "public",
      "major_code": null,
      "sub_code": null,
      "year": "2021"
    },
    {
      "id": "ef9385a2-58a6-4e51-ad86-cb85103338c3",
      "name": "区立尾山台小学校",
      "lat": 35.60466,
      "lon": 139.654195,
      "category": "public",
      "major_code": null,
      "sub_code": null,
      "year": "2021"
    },
    {
      "id": "b78eb0a7-fbd9-437a-844e-13840b4060f2",
      "name": "区立守山小学校",
      "lat": 35.665459,
      "lon": 139.661637,
      "category": "public",
      "major_code": null,
      "sub_code": null,
      "year": "2021"
    },
    {
      "id": "be5d07ba-6da2-4536-9922-2789384a2dbe",
      "name": "区立烏山北小学校",
      "lat": 35.674012,
      "lon": 139.599475,
      "category": "public",
      "major_code": null,
      "sub_code": null,
      "year": "2021"
    },
    {
      "id": "dde1df06-a251-46fa-b9b5-0fa9e7f85404",
      "name": "区立中幡小学校",
      "lat": 35.680707,
      "lon": 139.673358,
      "category": "public",
      "major_code": null,
      "sub_code": null,
      "year": "2021"
    },
    {
      "id": "de0eb2ae-0070-4fec-88dc-f9fc99acab00",
      "name": "区立東大原小学校",
      "lat": 35.666764,
      "lon": 139.664637,
      "category": "public",
      "major_code": null,
      "sub_code": null,
      "year": "2021"
    },
    {
      "id": "5b05fa15-6ac1-4625-ad4a-58bd42ff25f7",
      "name": "区立尾山台中学校",
      "lat": 35.605771,
      "lon": 139.656167,
      "category": "public",
      "major_code": null,
      "sub_code": null,
      "year": "2021"
    },
    {
      "id": "928df94b-5bf5-4849-9e85-8fd2b03e3e7d",
      "name": "区立深沢中学校",
      "lat": 35.626602,
      "lon": 139.648334,
      "category": "public",
      "major_code": null,
      "sub_code": null,
      "year": "2021"
    },
    {
      "id": "efa534a1-390a-4a36-a59d-ef6a45622b0d",
      "name": "区立桜木中学校",
      "lat": 35.64596,
      "lon": 139.641806,
      "category": "public",
      "major_code": null,
      "sub_code": null,
      "year": "2021"
    },
    {
      "id": "81b0af3c-b8b1-4cfc-becd-dff78ecb2910",
      "name": "都立玉川高等学校",
      "lat": 35.609354,
      "lon": 139.633892,
      "category": "public",
      "major_code": null,
      "sub_code": null,
      "year": "2021"
    },
    {
      "id": "a030f063-8258-445c-b40e-00f6b27fbb32",
      "name": "都立芸術高等学校",
      "lat": 35.654544,
      "lon": 139.684497,
      "category": "public",
      "major_code": null,
      "sub_code": null,
      "year": "2021"
    },
    {
      "id": "afc3d513-78a0-48cd-a8b0-335e2a94b32e",
      "name": "私立国士舘高等学校",
      "lat": 35.647856,
      "lon": 139.654297,
      "category": "public",
      "major_code": null,
      "sub_code": null,
      "year": "2021"
    },
    {
      "id": "d11869d6-603b-43f6-9b7b-4002f6875a48",
      "name": "私立戸板女子高等学校",
      "lat": 35.627657,
      "lon": 139.638418,
      "category": "public",
      "major_code": null,
      "sub_code": null,
      "year": "2021"
    },
    {
      "id": "fa8e71b1-fa3b-4909-b638-3abd63fdfd39",
      "name": "私立大東学園高等学校",
      "lat": 35.658292,
      "lon": 139.616058,
      "category": "public",
      "major_code": null,
      "sub_code": null,
      "year": "2021"
    },
    {
      "id": "fc861227-6d22-465b-ab30-a79db3d76750",
      "name": "私立日本学園高等学校",
      "lat": 35.665097,
      "lon": 139.648833,
      "category": "public",
      "major_code": null,
      "sub_code": null,
      "year": "2021"
    },
    {
      "id": "76a5f789-a561-432e-87eb-dc85bbf5a194",
      "name": "駒澤大学（経済学部）",
      "lat": 35.629407,
      "lon": 139.658472,
      "category": "public",
      "major_code": null,
      "sub_code": null,
      "year": "2021"
    },
    {
      "id": "f0033087-eef7-4236-8ad9-a2a8b345f3e5",
      "name": "東京大学（教養学部）",
      "lat": 35.659849,
      "lon": 139.68483,
      "category": "public",
      "major_code": null,
      "sub_code": null,
      "year": "2021"
    },
    {
      "id": "f5da053b-b534-4d57-9805-1640fb48895d",
      "name": "東京工業大学（工学部）",
      "lat": 35.604578,
      "lon": 139.684109,
      "category": "public",
      "major_code": null,
      "sub_code": null,
      "year": "2021"
    },
    {
      "id": "48c170de-d6e9-43aa-9611-181a412b9288",
      "name": "東海大学（工学部）",
      "lat": 35.664543,
      "lon": 139.684441,
      "category": "public",
      "major_code": null,
      "sub_code": null,
      "year": "2021"
    },
    {
      "id": "ccdf11e5-45d3-461e-8a1e-fb54f5a9263e",
      "name": "高千穂大学（経営学部）",
      "lat": 35.683734,
      "lon": 139.637861,
      "category": "public",
      "major_code": null,
      "sub_code": null,
      "year": "2021"
    },
    {
      "id": "e3103f16-26a0-4b71-8b14-7805d38fa249",
      "name": "喜多見幼稚園",
      "lat": 35.637932,
      "lon": 139.588783,
      "category": "public",
      "major_code": null,
      "sub_code": null,
      "year": "2021"
    },
    {
      "id": "aa5e04b0-a152-46c1-8e8c-09b3b45c888d",
      "name": "慶岸寺幼稚園",
      "lat": 35.633739,
      "lon": 139.588644,
      "category": "public",
      "major_code": null,
      "sub_code": null,
      "year": "2021"
    },
    {
      "id": "eb8e2194-8743-49c1-ad24-47784aedeb62",
      "name": "爽玄会碑文谷病院",
      "lat": 35.614354,
      "lon": 139.685692,
      "category": "public",
      "major_code": null,
      "sub_code": null,
      "year": "2021"
    },
    {
      "id": "d6301860-3489-43e0-855b-bdaa15b39072",
      "name": "東邦大学医学部付属大橋病院",
      "lat": 35.652516,
      "lon": 139.685802,
      "category": "public",
      "major_code": null,
      "sub_code": null,
      "year": "2021"
    },
    {
      "id": "4a123df4-4fd8-4508-abfc-f59d066eb61e",
      "name": "世田谷一郵便局",
      "lat": 35.641989,
      "lon": 139.645722,
      "category": "public",
      "major_code": null,
      "sub_code": null,
      "year": "2021"
    },
    {
      "id": "9cb077a2-5d32-4fa3-8328-3c46be41596e",
      "name": "世田谷九品仏郵便局",
      "lat": 35.603605,
      "lon": 139.660806,
      "category": "public",
      "major_code": null,
      "sub_code": null,
      "year": "2021"
    },
    {
      "id": "9cf8cf31-0c16-4ad7-9332-a236035ac618",
      "name": "世田谷桜新町郵便局",
      "lat": 35.63024,
      "lon": 139.643834,
      "category": "public",
      "major_code": null,
      "sub_code": null,
      "year": "2021"
    },
    {
      "id": "e7998794-d76d-41ca-9b11-578786fc1d80",
      "name": "世田谷等々力郵便局",
      "lat": 35.609159,
      "lon": 139.648001,
      "category": "public",
      "major_code": null,
      "sub_code": null,
      "year": "2021"
    },
    {
      "id": "a7641179-4d22-4d1a-80cf-de47aa0f7b37",
      "name": "世田谷区きたざわ苑在宅介護支援センター",
      "lat": 35.670042,
      "lon": 139.67133,
      "category": "public",
      "major_code": null,
      "sub_code": null,
      "year": "2021"
    },
    {
      "id": "75e22ea6-99b5-460b-b2e4-0e98ae9f51f9",
      "name": "代沢在宅介護支援センター",
      "lat": 35.65421,
      "lon": 139.666943,
      "category": "public",
      "major_code": null,
      "sub_code": null,
      "year": "2021"
    },
    {
      "id": "dbdccec6-e07a-4750-8a59-abb047de6fbf",
      "name": "世田谷区玉川在宅介護支援センター",
      "lat": 35.610131,
      "lon": 139.654417,
      "category": "public",
      "major_code": null,
      "sub_code": null,
      "year": "2021"
    },
    {
      "id": "21dc5944-31ed-4044-bdf0-33df61a24864",
      "name": "国立成育医療センター研究所",
      "lat": 35.651017,
      "lon": 139.670895,
      "category": "public",
      "major_code": null,
      "sub_code": null,
      "year": "2021"
    },
    {
      "id": "90cd7abe-5a9b-4b29-a31c-43602897c834",
      "name": "玉川警察署",
      "lat": 35.613659,
      "lon": 139.647807,
      "category": "public",
      "major_code": null,
      "sub_code": null,
      "year": "2021"
    },
    {
      "id": "e4d31cfb-8879-41cb-9149-6db20277d7f6",
      "name": "北沢警察署赤堤交番",
      "lat": 35.65732,
      "lon": 139.642528,
      "category": "public",
      "major_code": null,
      "sub_code": null,
      "year": "2021"
    },
    {
      "id": "7a1bb8ff-a9b7-4b82-ab1a-04c406f98695",
      "name": "代々木警察署笹塚交番",
      "lat": 35.674652,
      "lon": 139.667331,
      "category": "public",
      "major_code": null,
      "sub_code": null,
      "year": "2021"
    },
    {
      "id": "e63babe8-9ad1-41e1-b39f-dfe03692a08f",
      "name": "北沢警察署経堂駅前交番",
      "lat": 35.651571,
      "lon": 139.637223,
      "category": "public",
      "major_code": null,
      "sub_code": null,
      "year": "2021"
    },
    {
      "id": "6378e0c2-8800-42bc-9b16-cda986ab8a1a",
      "name": "区立中町小学校",
      "lat": 35.617381,
      "lon": 139.642612,
      "category": "public",
      "major_code": null,
      "sub_code": null,
      "year": "2021"
    },
    {
      "id": "fecdff62-5d73-41a0-84e1-cf29aff7c564",
      "name": "区立泉南中学校",
      "lat": 35.684151,
      "lon": 139.655498,
      "category": "public",
      "major_code": null,
      "sub_code": null,
      "year": "2021"
    },
    {
      "id": "92014fa1-1e77-4731-9621-1b87ea1fdafa",
      "name": "私立東海大学附属望星高等学校",
      "lat": 35.665265,
      "lon": 139.686302,
      "category": "public",
      "major_code": null,
      "sub_code": null,
      "year": "2021"
    },
    {
      "id": "bf469156-3bc3-4d3e-8838-4e25ba030c49",
      "name": "駒澤大学（経営学部）",
      "lat": 35.629407,
      "lon": 139.658472,
      "category": "public",
      "major_code": null,
      "sub_code": null,
      "year": "2021"
    },
    {
      "id": "fcc64dfd-ece8-4dfb-bf25-27502f228c42",
      "name": "成城大学（経済学部）",
      "lat": 35.642571,
      "lon": 139.601087,
      "category": "public",
      "major_code": null,
      "sub_code": null,
      "year": "2021"
    },
    {
      "id": "b2e478a0-9db3-42f3-a2e2-4ee72da1244c",
      "name": "あけぼの幼稚園",
      "lat": 35.642127,
      "lon": 139.610392,
      "category": "public",
      "major_code": null,
      "sub_code": null,
      "year": "2021"
    },
    {
      "id": "73086b91-0b78-43cb-bc7d-ab1ed78e498b",
      "name": "松沢幼稚園",
      "lat": 35.667874,
      "lon": 139.625918,
      "category": "public",
      "major_code": null,
      "sub_code": null,
      "year": "2021"
    },
    {
      "id": "731427f4-7b29-434b-9aee-8d2fda47046b",
      "name": "国本幼稚園",
      "lat": 35.635349,
      "lon": 139.588005,
      "category": "public",
      "major_code": null,
      "sub_code": null,
      "year": "2021"
    },
    {
      "id": "ae38bf27-bb09-468c-b222-74cf00ff2982",
      "name": "杉並南郵便局",
      "lat": 35.681567,
      "lon": 139.634111,
      "category": "public",
      "major_code": null,
      "sub_code": null,
      "year": "2021"
    },
    {
      "id": "ad3a2118-3769-4ebc-b35f-73ffd378d9e7",
      "name": "世田谷羽根木郵便局",
      "lat": 35.666042,
      "lon": 139.658221,
      "category": "public",
      "major_code": null,
      "sub_code": null,
      "year": "2021"
    },
    {
      "id": "626a277f-1f62-4203-8d40-c6dc594bf893",
      "name": "世田谷梅丘郵便局",
      "lat": 35.651571,
      "lon": 139.657555,
      "category": "public",
      "major_code": null,
      "sub_code": null,
      "year": "2021"
    },
    {
      "id": "7f8dcc9d-297b-4d5b-a2c0-a032c5fc33be",
      "name": "二子玉川郵便局",
      "lat": 35.615909,
      "lon": 139.625365,
      "category": "public",
      "major_code": null,
      "sub_code": null,
      "year": "2021"
    },
    {
      "id": "ad38199f-0e9b-41ab-b72e-5bfc407d211c",
      "name": "渋谷富ヶ谷二郵便局",
      "lat": 35.663293,
      "lon": 139.68508,
      "category": "public",
      "major_code": null,
      "sub_code": null,
      "year": "2021"
    },
    {
      "id": "4b681da5-e388-4d44-9e3e-891210b3f788",
      "name": "東京都用賀技能開発学院",
      "lat": 35.635073,
      "lon": 139.635196,
      "category": "public",
      "major_code": null,
      "sub_code": null,
      "year": "2021"
    },
    {
      "id": "f74a470c-0306-4d45-8543-7780c24e5d17",
      "name": "田園調布二丁目児童館",
      "lat": 35.59544,
      "lon": 139.672861,
      "category": "public",
      "major_code": null,
      "sub_code": null,
      "year": "2021"
    },
    {
      "id": "d709c8ea-1289-47d3-9c30-d6dece2fcd9d",
      "name": "有隣病院",
      "lat": 35.650987,
      "lon": 139.619113,
      "category": "public",
      "major_code": null,
      "sub_code": null,
      "year": "2021"
    },
    {
      "id": "d5cc4ca8-5f34-4c4b-9eee-2645de7deeff",
      "name": "東が丘福祉工房",
      "lat": 35.627741,
      "lon": 139.667971,
      "category": "public",
      "major_code": null,
      "sub_code": null,
      "year": "2021"
    },
    {
      "id": "87cbcf37-d63a-4a0f-8b56-4656bca66116",
      "name": "東弦巻保育園",
      "lat": 35.635656,
      "lon": 139.651556,
      "category": "public",
      "major_code": null,
      "sub_code": null,
      "year": "2021"
    },
    {
      "id": "8efaf64d-28d0-4e18-81de-1f6ab91c05f4",
      "name": "川崎北見方郵便局",
      "lat": 35.600328,
      "lon": 139.630143,
      "category": "public",
      "major_code": null,
      "sub_code": null,
      "year": "2021"
    },
    {
      "id": "eaf59f1b-4c6a-4c42-a61e-2d34f1def5b2",
      "name": "多聞幼稚園",
      "lat": 35.653072,
      "lon": 139.673275,
      "category": "public",
      "major_code": null,
      "sub_code": null,
      "year": "2021"
    },
    {
      "id": "8412d3a8-763d-4d12-99b0-6aff9823adb1",
      "name": "市立大谷戸小学校",
      "lat": 35.591093,
      "lon": 139.631841,
      "category": "public",
      "major_code": null,
      "sub_code": null,
      "year": "2021"
    },
    {
      "id": "9a36e858-09ab-4c6e-a971-119d5cd436fb",
      "name": "私立戸板中学校",
      "lat": 35.627657,
      "lon": 139.638418,
      "category": "public",
      "major_code": null,
      "sub_code": null,
      "year": "2021"
    },
    {
      "id": "b36836fc-f826-493a-863d-80783e3102a2",
      "name": "柿ノ木坂幼稚園",
      "lat": 35.624825,
      "lon": 139.673137,
      "category": "public",
      "major_code": null,
      "sub_code": null,
      "year": "2021"
    },
    {
      "id": "d41095d3-7950-4fb4-8cb2-809ca1fc5a8a",
      "name": "世田谷上馬郵便局",
      "lat": 35.635296,
      "lon": 139.663888,
      "category": "public",
      "major_code": null,
      "sub_code": null,
      "year": "2021"
    },
    {
      "id": "76490a04-15b2-4dac-80db-0fd8d267a927",
      "name": "世田谷区北沢在宅介護支援センター",
      "lat": 35.662209,
      "lon": 139.66972,
      "category": "public",
      "major_code": null,
      "sub_code": null,
      "year": "2021"
    },
    {
      "id": "e73a2037-8d18-4adc-80de-0619548d37ae",
      "name": "ナオミホーム",
      "lat": 35.609298,
      "lon": 139.653167,
      "category": "public",
      "major_code": null,
      "sub_code": null,
      "year": "2021"
    },
    {
      "id": "9563fbe3-72ba-4741-95bd-aab4af6b2544",
      "name": "大蔵保育園",
      "lat": 35.640877,
      "lon": 139.612309,
      "category": "public",
      "major_code": null,
      "sub_code": null,
      "year": "2021"
    },
    {
      "id": "d31e7189-ecc6-40d7-9254-509ce45909cd",
      "name": "川崎市立高津図書館",
      "lat": 35.605309,
      "lon": 139.615232,
      "category": "public",
      "major_code": null,
      "sub_code": null,
      "year": "2021"
    },
    {
      "id": "de17c3d9-dc7e-4115-8940-a550ba5a8de3",
      "name": "高津警察署末長交番",
      "lat": 35.590812,
      "lon": 139.6171,
      "category": "public",
      "major_code": null,
      "sub_code": null,
      "year": "2021"
    },
    {
      "id": "c9ac4ba0-b116-4301-bcef-9fc935e63cdd",
      "name": "溝ノ口中央通郵便局",
      "lat": 35.600078,
      "lon": 139.614673,
      "category": "public",
      "major_code": null,
      "sub_code": null,
      "year": "2021"
    },
    {
      "id": "c3396318-0957-4b2c-95f7-db83b937a2c7",
      "name": "西高津保育園",
      "lat": 35.607438,
      "lon": 139.614339,
      "category": "public",
      "major_code": null,
      "sub_code": null,
      "year": "2021"
    },
    {
      "id": "fcc64623-9c8c-45e7-add9-a70aed9b06fb",
      "name": "私立和光小学校",
      "lat": 35.644099,
      "lon": 139.635557,
      "category": "public",
      "major_code": null,
      "sub_code": null,
      "year": "2021"
    },
    {
      "id": "6c571d07-6d51-4c1f-bb84-7676b1d4d7ee",
      "name": "市立狛江第六小学校",
      "lat": 35.624435,
      "lon": 139.585312,
      "category": "public",
      "major_code": null,
      "sub_code": null,
      "year": "2021"
    },
    {
      "id": "810a16f8-ffa9-4b44-b3aa-ea33e2357a03",
      "name": "区立代々木中学校",
      "lat": 35.674569,
      "lon": 139.683579,
      "category": "public",
      "major_code": null,
      "sub_code": null,
      "year": "2021"
    },
    {
      "id": "947ef7b7-2ac0-4393-92fc-4a9612b813e7",
      "name": "私立日本工業大学附属中学校",
      "lat": 35.657377,
      "lon": 139.683969,
      "category": "public",
      "major_code": null,
      "sub_code": null,
      "year": "2021"
    },
    {
      "id": "ac9d2256-7837-4792-bc2c-5a7abc7f3375",
      "name": "私立國學院大學久我山中学校",
      "lat": 35.683927,
      "lon": 139.592948,
      "category": "public",
      "major_code": null,
      "sub_code": null,
      "year": "2021"
    },
    {
      "id": "8b6ab6ba-0da9-41d9-9e62-40d24c4eca44",
      "name": "都立砧工業高等学校",
      "lat": 35.620047,
      "lon": 139.619004,
      "category": "public",
      "major_code": null,
      "sub_code": null,
      "year": "2021"
    },
    {
      "id": "dadf6e60-265a-40e3-8c19-103df4e9e03a",
      "name": "都立松原高等学校",
      "lat": 35.66493,
      "lon": 139.635278,
      "category": "public",
      "major_code": null,
      "sub_code": null,
      "year": "2021"
    },
    {
      "id": "1dd3200f-d45a-4f9e-aafe-122a0a77a28d",
      "name": "育成幼稚園",
      "lat": 35.668042,
      "lon": 139.667109,
      "category": "public",
      "major_code": null,
      "sub_code": null,
      "year": "2021"
    },
    {
      "id": "79d8be9f-684c-42b1-9af5-a5bc89f61d96",
      "name": "赤堤幼稚園",
      "lat": 35.65832,
      "lon": 139.643528,
      "category": "public",
      "major_code": null,
      "sub_code": null,
      "year": "2021"
    },
    {
      "id": "d84cb9c7-10d2-4b26-b00c-13f93a977e39",
      "name": "日体幼稚園",
      "lat": 35.626213,
      "lon": 139.646167,
      "category": "public",
      "major_code": null,
      "sub_code": null,
      "year": "2021"
    },
    {
      "id": "4e2d458a-3d40-4f8a-8f4f-1389e295bbc3",
      "name": "経堂駅前郵便局",
      "lat": 35.652154,
      "lon": 139.637556,
      "category": "public",
      "major_code": null,
      "sub_code": null,
      "year": "2021"
    },
    {
      "id": "755de895-95d3-40ee-9785-23e64d84dd24",
      "name": "東松原駅前郵便局",
      "lat": 35.662153,
      "lon": 139.65561,
      "category": "public",
      "major_code": null,
      "sub_code": null,
      "year": "2021"
    },
    {
      "id": "adb7e45c-1a45-4801-8ca9-161ba3fb175c",
      "name": "社会福祉法人東京有隣会　第２有隣ホーム",
      "lat": 35.651164,
      "lon": 139.618547,
      "category": "public",
      "major_code": null,
      "sub_code": null,
      "year": "2021"
    },
    {
      "id": "5799c0e3-e055-4bd7-ba1e-23f5fbaf543c",
      "name": "深沢地区会館",
      "lat": 35.617631,
      "lon": 139.661055,
      "category": "public",
      "major_code": null,
      "sub_code": null,
      "year": "2021"
    },
    {
      "id": "fc3fca6b-764d-4df6-9fb5-dd6c7e0c01df",
      "name": "世田谷地区会館",
      "lat": 35.645957,
      "lon": 139.652673,
      "category": "public",
      "major_code": null,
      "sub_code": null,
      "year": "2021"
    },
    {
      "id": "a347eb9e-9dff-4bdc-a3fb-6b80aae84bdd",
      "name": "代田南児童館",
      "lat": 35.652616,
      "lon": 139.661559,
      "category": "public",
      "major_code": null,
      "sub_code": null,
      "year": "2021"
    },
    {
      "id": "fc064348-ef58-4bec-accf-c39cb3891601",
      "name": "中幡幼稚園",
      "lat": 35.684262,
      "lon": 139.674885,
      "category": "public",
      "major_code": null,
      "sub_code": null,
      "year": "2021"
    },
    {
      "id": "dffc8e0b-af6e-4140-b4d0-b5f3a8f3e051",
      "name": "世田谷区立老人会館",
      "lat": 35.647933,
      "lon": 139.65636,
      "category": "public",
      "major_code": null,
      "sub_code": null,
      "year": "2021"
    },
    {
      "id": "403ce22b-2772-49e9-837f-4f3e957fba90",
      "name": "私立田園調布学園中等部",
      "lat": 35.595745,
      "lon": 139.673639,
      "category": "public",
      "major_code": null,
      "sub_code": null,
      "year": "2021"
    },
    {
      "id": "31200140-6b69-4bcc-b189-66c2b811881a",
      "name": "目黒八雲五郵便局",
      "lat": 35.624658,
      "lon": 139.666082,
      "category": "public",
      "major_code": null,
      "sub_code": null,
      "year": "2021"
    },
    {
      "id": "e3cdb1be-71d3-4c9c-b26a-751c27dd468a",
      "name": "ベネッセホームくらら二子玉川",
      "lat": 35.620602,
      "lon": 139.613838,
      "category": "public",
      "major_code": null,
      "sub_code": null,
      "year": "2021"
    },
    {
      "id": "77ffa7a0-6932-4863-93fa-7f9541dcc8e4",
      "name": "杉並堀ノ内郵便局",
      "lat": 35.682845,
      "lon": 139.648999,
      "category": "public",
      "major_code": null,
      "sub_code": null,
      "year": "2021"
    },
    {
      "id": "7a0ad4a8-5b2c-4a3d-b6cc-ce14f978a03b",
      "name": "博水の郷",
      "lat": 35.619686,
      "lon": 139.615921,
      "category": "public",
      "major_code": null,
      "sub_code": null,
      "year": "2021"
    },
    {
      "id": "994a4310-02de-4a3c-b695-9fcd87025b8c",
      "name": "川崎市高津こども文化センター",
      "lat": 35.603411,
      "lon": 139.614232,
      "category": "public",
      "major_code": null,
      "sub_code": null,
      "year": "2021"
    },
    {
      "id": "02cbec08-b08d-4690-827d-bc77f1bd8ce4",
      "name": "昭和女子大学（人間文化学部）",
      "lat": 35.644073,
      "lon": 139.676053,
      "category": "public",
      "major_code": null,
      "sub_code": null,
      "year": "2021"
    },
    {
      "id": "1b50b32e-990e-4833-a373-f5d467faff0b",
      "name": "クロス病院",
      "lat": 35.677291,
      "lon": 139.675108,
      "category": "public",
      "major_code": null,
      "sub_code": null,
      "year": "2021"
    },
    {
      "id": "13ab5a1c-d6bb-437f-b733-b46f044b6cf0",
      "name": "南台児童館",
      "lat": 35.681124,
      "lon": 139.666442,
      "category": "public",
      "major_code": null,
      "sub_code": null,
      "year": "2021"
    },
    {
      "id": "2ffb1e9d-6ab2-4033-89e8-b0ea0cef6c7d",
      "name": "梅ケ丘病院",
      "lat": 35.657404,
      "lon": 139.65036,
      "category": "public",
      "major_code": null,
      "sub_code": null,
      "year": "2021"
    },
    {
      "id": "6ae79b45-7c38-44d8-ad52-d9c591391128",
      "name": "南台保育園",
      "lat": 35.684318,
      "lon": 139.665275,
      "category": "public",
      "major_code": null,
      "sub_code": null,
      "year": "2021"
    },
    {
      "id": "ee35fa3c-8847-444d-9e69-6ca4a5598416",
      "name": "総合高津中央病院",
      "lat": 35.60005,
      "lon": 139.61259,
      "category": "public",
      "major_code": null,
      "sub_code": null,
      "year": "2021"
    },
    {
      "id": "9cd7ee3f-b41b-4c3e-b5b5-a94448e53b50",
      "name": "川崎市地名資料室",
      "lat": 35.598811,
      "lon": 139.614052,
      "category": "public",
      "major_code": null,
      "sub_code": null,
      "year": "2021"
    },
    {
      "id": "863f1b56-375a-4e75-a026-e87af99a1799",
      "name": "神奈川労働局川崎北労働基準監督署",
      "lat": 35.599745,
      "lon": 139.615312,
      "category": "public",
      "major_code": null,
      "sub_code": null,
      "year": "2021"
    },
    {
      "id": "fbc708ab-dfaf-410e-9eb1-b10358169b7f",
      "name": "高津社会保険事務所",
      "lat": 35.597966,
      "lon": 139.609698,
      "category": "public",
      "major_code": null,
      "sub_code": null,
      "year": "2021"
    },
    {
      "id": "94bdedce-a5b8-4a11-a784-cda682a5df62",
      "name": "関東地方整備局川崎国道事務所",
      "lat": 35.590691,
      "lon": 139.601425,
      "category": "public",
      "major_code": null,
      "sub_code": null,
      "year": "2021"
    },
    {
      "id": "b5d6dd09-0926-4e55-8a11-82055032e60b",
      "name": "神奈川県川崎労働センター",
      "lat": 35.598745,
      "lon": 139.614617,
      "category": "public",
      "major_code": null,
      "sub_code": null,
      "year": "2021"
    },
    {
      "id": "cdc2237e-7133-4496-882d-5c03be273ca1",
      "name": "川崎市消防局中原消防署宮内出張所",
      "lat": 35.593023,
      "lon": 139.635643,
      "category": "public",
      "major_code": null,
      "sub_code": null,
      "year": "2021"
    },
    {
      "id": "45369c6e-88a9-4ccc-8d7e-e33e8e838a47",
      "name": "洗足学園音楽大学（音楽学部）",
      "lat": 35.593697,
      "lon": 139.61529,
      "category": "public",
      "major_code": null,
      "sub_code": null,
      "year": "2021"
    },
    {
      "id": "c37794bc-a03b-4b18-a6f6-08013fff270a",
      "name": "大田区多摩川台公園古墳展示室",
      "lat": 35.590134,
      "lon": 139.666945,
      "category": "public",
      "major_code": null,
      "sub_code": null,
      "year": "2021"
    },
    {
      "id": "9beabce9-56ae-49e5-a425-5a2850fc4562",
      "name": "成城消防署千歳出張所",
      "lat": 35.658986,
      "lon": 139.612586,
      "category": "public",
      "major_code": null,
      "sub_code": null,
      "year": "2021"
    },
    {
      "id": "9813667f-dc0f-4a50-893a-00984bfe950c",
      "name": "私立成城学園初等学校",
      "lat": 35.645737,
      "lon": 139.603115,
      "category": "public",
      "major_code": null,
      "sub_code": null,
      "year": "2021"
    },
    {
      "id": "c707e283-8d68-4b86-876c-1f45370f0607",
      "name": "私立世田谷学園中学校",
      "lat": 35.648628,
      "lon": 139.675164,
      "category": "public",
      "major_code": null,
      "sub_code": null,
      "year": "2021"
    },
    {
      "id": "cc0b5cf3-6610-463e-881b-d9ef3784f377",
      "name": "国立東京学芸大学附属世田谷中学校",
      "lat": 35.620436,
      "lon": 139.659389,
      "category": "public",
      "major_code": null,
      "sub_code": null,
      "year": "2021"
    },
    {
      "id": "ea51afac-b944-4ca5-871e-e4de9d694e36",
      "name": "私立清明学園中学校",
      "lat": 35.59144,
      "lon": 139.686221,
      "category": "public",
      "major_code": null,
      "sub_code": null,
      "year": "2021"
    },
    {
      "id": "0aab598d-93e6-48c0-9360-732cb673304e",
      "name": "区立第八中学校",
      "lat": 35.619687,
      "lon": 139.682526,
      "category": "public",
      "major_code": null,
      "sub_code": null,
      "year": "2021"
    },
    {
      "id": "aa66e4b3-5b16-4ff4-89e9-97e855ebf72e",
      "name": "駒澤大学（文学部）",
      "lat": 35.629407,
      "lon": 139.658472,
      "category": "public",
      "major_code": null,
      "sub_code": null,
      "year": "2021"
    },
    {
      "id": "09b0b111-3d37-4d6a-bae7-46a92c62b4cf",
      "name": "いづみ幼稚園",
      "lat": 35.639268,
      "lon": 139.68172,
      "category": "public",
      "major_code": null,
      "sub_code": null,
      "year": "2021"
    },
    {
      "id": "7f6f8ccd-7d3e-468e-929b-6d2ef523730a",
      "name": "下高井戸幼稚園",
      "lat": 35.674401,
      "lon": 139.630167,
      "category": "public",
      "major_code": null,
      "sub_code": null,
      "year": "2021"
    },
    {
      "id": "83fae471-59c0-4aa1-be96-3a1d824f3e44",
      "name": "三軒茶屋幼稚園",
      "lat": 35.641878,
      "lon": 139.668137,
      "category": "public",
      "major_code": null,
      "sub_code": null,
      "year": "2021"
    },
    {
      "id": "9479aec4-0cd1-4205-b317-449dfdac8960",
      "name": "回心会ロイヤル病院",
      "lat": 35.670346,
      "lon": 139.628001,
      "category": "public",
      "major_code": null,
      "sub_code": null,
      "year": "2021"
    },
    {
      "id": "91caa551-a54f-4947-b951-0df9f31b298b",
      "name": "青葉会青葉病院",
      "lat": 35.643961,
      "lon": 139.671415,
      "category": "public",
      "major_code": null,
      "sub_code": null,
      "year": "2021"
    },
    {
      "id": "2a303b5c-8bf2-47db-b6ea-8512aee89b65",
      "name": "自衛隊中央病院",
      "lat": 35.643434,
      "lon": 139.683775,
      "category": "public",
      "major_code": null,
      "sub_code": null,
      "year": "2021"
    },
    {
      "id": "d8f82554-de81-4ffb-a7ed-921fe8c6446c",
      "name": "代々木郵便局",
      "lat": 35.676758,
      "lon": 139.682441,
      "category": "public",
      "major_code": null,
      "sub_code": null,
      "year": "2021"
    },
    {
      "id": "42250f3e-7a3a-443a-b7c2-c15f98af98fe",
      "name": "東京オペラシティ郵便局",
      "lat": 35.682902,
      "lon": 139.686606,
      "category": "public",
      "major_code": null,
      "sub_code": null,
      "year": "2021"
    },
    {
      "id": "f04c981b-5415-4612-8cd0-c0eb0a7e541a",
      "name": "田園調布五郵便局",
      "lat": 35.596967,
      "lon": 139.656168,
      "category": "public",
      "major_code": null,
      "sub_code": null,
      "year": "2021"
    },
    {
      "id": "8eb39dd7-3705-4d0e-97be-fb6eefe55e14",
      "name": "杉並浜田山郵便局",
      "lat": 35.6849,
      "lon": 139.626389,
      "category": "public",
      "major_code": null,
      "sub_code": null,
      "year": "2021"
    },
    {
      "id": "c6b68b6c-f73e-4ec3-9ea7-f752ffc678dd",
      "name": "渋谷笹塚郵便局",
      "lat": 35.67393,
      "lon": 139.664636,
      "category": "public",
      "major_code": null,
      "sub_code": null,
      "year": "2021"
    },
    {
      "id": "f3da400f-d454-4d13-b8e3-f6e284268a30",
      "name": "世田谷桜丘三郵便局",
      "lat": 35.638711,
      "lon": 139.625808,
      "category": "public",
      "major_code": null,
      "sub_code": null,
      "year": "2021"
    },
    {
      "id": "9151c04e-bd30-4efb-9581-88e3902ef00a",
      "name": "世田谷区立厚生会館",
      "lat": 35.649932,
      "lon": 139.648166,
      "category": "public",
      "major_code": null,
      "sub_code": null,
      "year": "2021"
    },
    {
      "id": "fe889595-8c84-4d66-b125-ac24953d9d0b",
      "name": "砧在宅介護支援センター",
      "lat": 35.635322,
      "lon": 139.612059,
      "category": "public",
      "major_code": null,
      "sub_code": null,
      "year": "2021"
    },
    {
      "id": "4294de07-d4db-461a-a33f-709c42d0cf2e",
      "name": "世田谷区梅丘在宅介護支援センター",
      "lat": 35.649898,
      "lon": 139.648035,
      "category": "public",
      "major_code": null,
      "sub_code": null,
      "year": "2021"
    },
    {
      "id": "947421b6-f3b2-4329-99a9-fc932cccd5c2",
      "name": "国際協力機構東京国際センター",
      "lat": 35.670903,
      "lon": 139.675691,
      "category": "public",
      "major_code": null,
      "sub_code": null,
      "year": "2021"
    },
    {
      "id": "18cb5eed-7d70-4347-96a9-0f7f24271083",
      "name": "国立病院機構関東信越ブロック事務所",
      "lat": 35.626847,
      "lon": 139.666415,
      "category": "public",
      "major_code": null,
      "sub_code": null,
      "year": "2021"
    },
    {
      "id": "0f14ff75-aa6e-485e-9a7d-29d22eb9acc5",
      "name": "在宅介護支援センター２４浜田山",
      "lat": 35.680456,
      "lon": 139.629973,
      "category": "public",
      "major_code": null,
      "sub_code": null,
      "year": "2021"
    },
    {
      "id": "36d7b64a-3567-4820-9878-7914c10558be",
      "name": "区立奥沢小学校",
      "lat": 35.5998,
      "lon": 139.674888,
      "category": "public",
      "major_code": null,
      "sub_code": null,
      "year": "2021"
    },
    {
      "id": "df9a4138-b49d-4e33-a32d-d2c989585bd4",
      "name": "国立東京学芸大学附属世田谷小学校",
      "lat": 35.61963,
      "lon": 139.657805,
      "category": "public",
      "major_code": null,
      "sub_code": null,
      "year": "2021"
    },
    {
      "id": "8c9320f4-5db5-45b6-bb5a-68cdb73a2527",
      "name": "渋谷区立西原図書館",
      "lat": 35.674957,
      "lon": 139.677723,
      "category": "public",
      "major_code": null,
      "sub_code": null,
      "year": "2021"
    },
    {
      "id": "c44de041-62e2-4433-b917-5b048beb6e61",
      "name": "区立駒場小学校",
      "lat": 35.659849,
      "lon": 139.681885,
      "category": "public",
      "major_code": null,
      "sub_code": null,
      "year": "2021"
    },
    {
      "id": "50ec36e1-fe6a-41e1-9574-8f9c084a6e2f",
      "name": "区立八雲小学校",
      "lat": 35.617937,
      "lon": 139.671277,
      "category": "public",
      "major_code": null,
      "sub_code": null,
      "year": "2021"
    },
    {
      "id": "71e6dcc9-a393-4793-9937-ae9ef9b68c44",
      "name": "区立北沢小学校",
      "lat": 35.668098,
      "lon": 139.672247,
      "category": "public",
      "major_code": null,
      "sub_code": null,
      "year": "2021"
    },
    {
      "id": "3ddeaf30-ac5a-415e-8e9c-6eeacc1e1b4e",
      "name": "区立大宮小学校",
      "lat": 35.683595,
      "lon": 139.649415,
      "category": "public",
      "major_code": null,
      "sub_code": null,
      "year": "2021"
    },
    {
      "id": "55a02597-3386-4ccd-9106-50449274a437",
      "name": "区立笹塚中学校",
      "lat": 35.677791,
      "lon": 139.66858,
      "category": "public",
      "major_code": null,
      "sub_code": null,
      "year": "2021"
    },
    {
      "id": "a36fbd6c-b3a7-4bce-b51f-43c4f804b4dc",
      "name": "区立第一中学校",
      "lat": 35.654655,
      "lon": 139.686357,
      "category": "public",
      "major_code": null,
      "sub_code": null,
      "year": "2021"
    },
    {
      "id": "7dd75d25-a9fb-4100-84a8-411003aac274",
      "name": "私立八雲学園中学校",
      "lat": 35.618259,
      "lon": 139.66997,
      "category": "public",
      "major_code": null,
      "sub_code": null,
      "year": "2021"
    },
    {
      "id": "8365a74a-bbc3-4e3a-bd3d-0c8c39c89e9d",
      "name": "上高井戸敬老会館",
      "lat": 35.677889,
      "lon": 139.616585,
      "category": "public",
      "major_code": null,
      "sub_code": null,
      "year": "2021"
    },
    {
      "id": "e4da468a-bdd5-4774-855e-64fc7276d446",
      "name": "尾山台ナザレン幼稚園",
      "lat": 35.600161,
      "lon": 139.650862,
      "category": "public",
      "major_code": null,
      "sub_code": null,
      "year": "2021"
    },
    {
      "id": "e50fed33-ca7b-42ba-9718-31218765bcde",
      "name": "老人休養ホームふじみ荘",
      "lat": 35.633739,
      "lon": 139.626474,
      "category": "public",
      "major_code": null,
      "sub_code": null,
      "year": "2021"
    },
    {
      "id": "10a17673-6a66-43ea-be25-ce7414375d16",
      "name": "三鷹市北野ハピネスセンター",
      "lat": 35.679983,
      "lon": 139.586031,
      "category": "public",
      "major_code": null,
      "sub_code": null,
      "year": "2021"
    },